{"stations": [
{
    "direction": "",
    "codes": {
        "yandex_code": "s9628674"
    },
    "station_type": "airport",
    "title": "Бермуды",
    "longitude": -64.678703,
    "transport_type": "plane",
    "latitude": 32.364041
},
{
    "direction": "",
    "codes": {
        "yandex_code": "s9628059"
    },
    "station_type": "airport",
    "title": "Юндум",
    "longitude": -16.652222,
    "transport_type": "plane",
    "latitude": 13.338056
},
{
    "direction": "",
    "codes": {
        "yandex_code": "s9626301"
    },
    "station_type": "airport",
    "title": "Улей",
    "longitude": 168.3,
    "transport_type": "plane",
    "latitude": -16.333333
},
{
    "direction": "",
    "codes": {
        "yandex_code": "s9624448"
    },
    "station_type": "airport",
    "title": "Крейг-Коув",
    "longitude": 167.916667,
    "transport_type": "plane",
    "latitude": -16.266667
},
{
    "direction": "",
    "codes": {
        "yandex_code": "s9626086"
    },
    "station_type": "airport",
    "title": "Танна",
    "longitude": 169.223889,
    "transport_type": "plane",
    "latitude": -19.455
},
{
    "direction": "",
    "codes": {
        "yandex_code": "s9625239"
    },
    "station_type": "airport",
    "title": "Ипота",
    "longitude": 169.266667,
    "transport_type": "plane",
    "latitude": -18.866667
},
{
    "direction": "",
    "codes": {
        "yandex_code": "s9630910"
    },
    "station_type": "airport",
    "title": "Гауа",
    "longitude": 167.588611,
    "transport_type": "plane",
    "latitude": -14.219444
},
{
    "direction": "",
    "codes": {
        "yandex_code": "s9625889"
    },
    "station_type": "airport",
    "title": "Маеуо",
    "longitude": 168.066667,
    "transport_type": "plane",
    "latitude": -15.016667
},
{
    "direction": "",
    "codes": {
        "yandex_code": "s9631587"
    },
    "station_type": "airport",
    "title": "Лонгана",
    "longitude": 167.966667,
    "transport_type": "plane",
    "latitude": -15.316667
},
{
    "direction": "",
    "codes": {
        "yandex_code": "s9628823"
    },
    "station_type": "airport",
    "title": "Ламин-Бэй",
    "longitude": 168.15,
    "transport_type": "plane",
    "latitude": -16.583333
},
{
    "direction": "",
    "codes": {
        "yandex_code": "s9629467"
    },
    "station_type": "airport",
    "title": "Диллонс-Бэй",
    "longitude": 168.983333,
    "transport_type": "plane",
    "latitude": -18.766667
},
{
    "direction": "",
    "codes": {
        "yandex_code": "s9631411"
    },
    "station_type": "airport",
    "title": "Фатуна",
    "longitude": 170.2,
    "transport_type": "plane",
    "latitude": -19.533333
},
{
    "direction": "",
    "codes": {
        "yandex_code": "s9631652"
    },
    "station_type": "airport",
    "title": "Валаха",
    "longitude": 167.7,
    "transport_type": "plane",
    "latitude": -15.416667
},
{
    "direction": "",
    "codes": {
        "yandex_code": "s9628179"
    },
    "station_type": "airport",
    "title": "Биг-Бей",
    "longitude": 167.35,
    "transport_type": "plane",
    "latitude": -16.05
},
{
    "direction": "",
    "codes": {
        "yandex_code": "s9630299"
    },
    "station_type": "airport",
    "title": "Редклифф",
    "longitude": 167.833333,
    "transport_type": "plane",
    "latitude": -15.483333
},
{
    "direction": "",
    "codes": {
        "yandex_code": "s9630830"
    },
    "station_type": "airport",
    "title": "Эпи",
    "longitude": 168.333333,
    "transport_type": "plane",
    "latitude": -16.75
},
{
    "direction": "",
    "codes": {
        "yandex_code": "s9632278"
    },
    "station_type": "airport",
    "title": "Куин-Хилл",
    "longitude": 168.416667,
    "transport_type": "plane",
    "latitude": -17.55
},
{
    "direction": "",
    "codes": {
        "yandex_code": "s9624720"
    },
    "station_type": "airport",
    "title": "Эспириту-Санто",
    "longitude": 167.219722,
    "transport_type": "plane",
    "latitude": -15.505
},
{
    "direction": "",
    "codes": {
        "yandex_code": "s9631313"
    },
    "station_type": "airport",
    "title": "Лонороре",
    "longitude": 168.171111,
    "transport_type": "plane",
    "latitude": -15.864167
},
{
    "direction": "",
    "codes": {
        "yandex_code": "s9626335"
    },
    "station_type": "airport",
    "title": "Валесдир",
    "longitude": 168.166667,
    "transport_type": "plane",
    "latitude": -16.8
},
{
    "direction": "",
    "codes": {
        "yandex_code": "s9625676"
    },
    "station_type": "airport",
    "title": "Ламап",
    "longitude": 167.816667,
    "transport_type": "plane",
    "latitude": -16.466667
},
{
    "direction": "",
    "codes": {
        "yandex_code": "s9626953"
    },
    "station_type": "airport",
    "title": "Норсап",
    "longitude": 167.4,
    "transport_type": "plane",
    "latitude": -16.083333
},
{
    "direction": "",
    "codes": {
        "yandex_code": "s9632417"
    },
    "station_type": "airport",
    "title": "Тонгоа",
    "longitude": 168.55,
    "transport_type": "plane",
    "latitude": -16.9
},
{
    "direction": "",
    "codes": {
        "yandex_code": "s9624682"
    },
    "station_type": "airport",
    "title": "Эма",
    "longitude": 168.333333,
    "transport_type": "plane",
    "latitude": -17.1
},
{
    "direction": "",
    "codes": {
        "yandex_code": "s9630156"
    },
    "station_type": "airport",
    "title": "Паама",
    "longitude": 168.216667,
    "transport_type": "plane",
    "latitude": -16.433333
},
{
    "direction": "",
    "codes": {
        "yandex_code": "s9627975"
    },
    "station_type": "airport",
    "title": "Анива",
    "longitude": 169.583333,
    "transport_type": "plane",
    "latitude": -19.233333
},
{
    "direction": "",
    "codes": {
        "yandex_code": "s9635117"
    },
    "station_type": "airport",
    "title": "Сола",
    "longitude": 167.534722,
    "transport_type": "plane",
    "latitude": -13.850556
},
{
    "direction": "",
    "codes": {
        "yandex_code": "s9627700"
    },
    "station_type": "airport",
    "title": "Сара",
    "longitude": 168.15,
    "transport_type": "plane",
    "latitude": -15.483333
},
{
    "direction": "",
    "codes": {
        "yandex_code": "s9630619"
    },
    "station_type": "airport",
    "title": "Торрес",
    "longitude": 166.616667,
    "transport_type": "plane",
    "latitude": -13.316667
},
{
    "direction": "",
    "codes": {
        "yandex_code": "s9624354"
    },
    "station_type": "airport",
    "title": "Мота-Лава",
    "longitude": 167.7,
    "transport_type": "plane",
    "latitude": -13.666667
},
{
    "direction": "",
    "codes": {
        "yandex_code": "s9627875"
    },
    "station_type": "airport",
    "title": "Саус-Вест-Бэй",
    "longitude": 167.438889,
    "transport_type": "plane",
    "latitude": -16.491667
},
{
    "direction": "",
    "codes": {
        "yandex_code": "s9627324"
    },
    "station_type": "airport",
    "title": "Порт-Вила",
    "longitude": 168.319722,
    "transport_type": "plane",
    "latitude": -17.699444
},
{
    "direction": "",
    "codes": {
        "yandex_code": "s9627964"
    },
    "station_type": "airport",
    "title": "Анейтиум",
    "longitude": 169.666667,
    "transport_type": "plane",
    "latitude": -20.333333
},
{
    "direction": "",
    "codes": {
        "yandex_code": "s9626887"
    },
    "station_type": "airport",
    "title": "Натитингоу",
    "longitude": 1.366667,
    "transport_type": "plane",
    "latitude": 10.316667
},
{
    "direction": "",
    "codes": {
        "yandex_code": "s9627149"
    },
    "station_type": "airport",
    "title": "Параку",
    "longitude": 2.616667,
    "transport_type": "plane",
    "latitude": 9.35
},
{
    "direction": "",
    "codes": {
        "yandex_code": "s9627723"
    },
    "station_type": "airport",
    "title": "Сейв",
    "longitude": 2.483333,
    "transport_type": "plane",
    "latitude": 8.033333
},
{
    "direction": "",
    "codes": {
        "yandex_code": "s9630779"
    },
    "station_type": "airport",
    "title": "Джугу",
    "longitude": 1.666667,
    "transport_type": "plane",
    "latitude": 9.7
},
{
    "direction": "",
    "codes": {
        "yandex_code": "s9631130"
    },
    "station_type": "airport",
    "title": "Канди",
    "longitude": 2.933333,
    "transport_type": "plane",
    "latitude": 11.133333
},
{
    "direction": "",
    "codes": {
        "yandex_code": "s9632123"
    },
    "station_type": "airport",
    "title": "Котону",
    "longitude": 2.384444,
    "transport_type": "plane",
    "latitude": 6.357222
},
{
    "direction": "",
    "codes": {
        "yandex_code": "s9623542"
    },
    "station_type": "airport",
    "title": "Имени Шота Руставели",
    "longitude": 44.954722,
    "transport_type": "plane",
    "latitude": 41.669167
},
{
    "direction": "",
    "codes": {
        "yandex_code": "s9623697"
    },
    "station_type": "airport",
    "title": "Батуми",
    "longitude": 41.599722,
    "transport_type": "plane",
    "latitude": 41.61
},
{
    "direction": "",
    "codes": {
        "yandex_code": "s9600383"
    },
    "station_type": "airport",
    "title": "Копитнари",
    "longitude": 42.465709286457745,
    "transport_type": "plane",
    "latitude": 42.18216865694473
},
{
    "direction": "",
    "codes": {
        "yandex_code": "s9632118"
    },
    "station_type": "airport",
    "title": "Кутаиси",
    "longitude": 42.482778,
    "transport_type": "plane",
    "latitude": 42.176944
},
{
    "direction": "",
    "codes": {
        "yandex_code": "s9623546"
    },
    "station_type": "airport",
    "title": "Гюмри",
    "longitude": 43.859444,
    "transport_type": "plane",
    "latitude": 40.750278
},
{
    "direction": "",
    "codes": {
        "yandex_code": "s9600369"
    },
    "station_type": "airport",
    "title": "Звартноц",
    "longitude": 44.395833,
    "transport_type": "plane",
    "latitude": 40.147222
},
{
    "direction": "",
    "codes": {
        "yandex_code": "s9630904"
    },
    "station_type": "airport",
    "title": "Габала",
    "longitude": 47.7123496763,
    "transport_type": "plane",
    "latitude": 40.8272013203
},
{
    "direction": "",
    "codes": {
        "yandex_code": "s9655205"
    },
    "station_type": "airport",
    "title": "Закаталы",
    "longitude": 46.6672222222,
    "transport_type": "plane",
    "latitude": 41.5622222222
},
{
    "direction": "",
    "codes": {
        "yandex_code": "s9623552"
    },
    "station_type": "airport",
    "title": "Гянджа",
    "longitude": 46.3175,
    "transport_type": "plane",
    "latitude": 40.735
},
{
    "direction": "",
    "codes": {
        "yandex_code": "s9600387"
    },
    "station_type": "airport",
    "title": "им. Гейдара Алиева",
    "longitude": 50.046667,
    "transport_type": "plane",
    "latitude": 40.4675
},
{
    "direction": "",
    "codes": {
        "yandex_code": "s9629673"
    },
    "station_type": "airport",
    "title": "Забрат",
    "longitude": 49.95374192040968,
    "transport_type": "plane",
    "latitude": 40.47176056197963
},
{
    "direction": "",
    "codes": {
        "yandex_code": "s9635356"
    },
    "station_type": "airport",
    "title": "Ленкорань",
    "longitude": 48.82383643363151,
    "transport_type": "plane",
    "latitude": 38.74222790108693
},
{
    "direction": "",
    "codes": {
        "yandex_code": "s9623893"
    },
    "station_type": "airport",
    "title": "Нахичевань",
    "longitude": 45.42504609,
    "transport_type": "plane",
    "latitude": 39.2007604165
},
{
    "direction": "",
    "codes": {
        "yandex_code": "s9630048"
    },
    "station_type": "airport",
    "title": "Наниуки",
    "longitude": 37.041667,
    "transport_type": "plane",
    "latitude": -0.061667
},
{
    "direction": "",
    "codes": {
        "yandex_code": "s9627597"
    },
    "station_type": "airport",
    "title": "Самбуру",
    "longitude": 37.533333,
    "transport_type": "plane",
    "latitude": 0.533333
},
{
    "direction": "",
    "codes": {
        "yandex_code": "s9630650"
    },
    "station_type": "airport",
    "title": "Уканда",
    "longitude": 39.566667,
    "transport_type": "plane",
    "latitude": -4.3
},
{
    "direction": "",
    "codes": {
        "yandex_code": "s9624670"
    },
    "station_type": "airport",
    "title": "Элдорет",
    "longitude": 35.238889,
    "transport_type": "plane",
    "latitude": 0.404722
},
{
    "direction": "",
    "codes": {
        "yandex_code": "s9631362"
    },
    "station_type": "airport",
    "title": "Малинди",
    "longitude": 40.100556,
    "transport_type": "plane",
    "latitude": -3.256667
},
{
    "direction": "",
    "codes": {
        "yandex_code": "s9631532"
    },
    "station_type": "airport",
    "title": "Китале",
    "longitude": 34.95,
    "transport_type": "plane",
    "latitude": 0.966667
},
{
    "direction": "",
    "codes": {
        "yandex_code": "s9631302"
    },
    "station_type": "airport",
    "title": "Лодвар",
    "longitude": 36.716667,
    "transport_type": "plane",
    "latitude": 3.1
},
{
    "direction": "",
    "codes": {
        "yandex_code": "s9625948"
    },
    "station_type": "airport",
    "title": "Мара Лоджес",
    "longitude": 35.1,
    "transport_type": "plane",
    "latitude": -1.183333
},
{
    "direction": "",
    "codes": {
        "yandex_code": "s9871251"
    },
    "station_type": "airport",
    "title": "Olare Airport",
    "longitude": "",
    "transport_type": "plane",
    "latitude": ""
},
{
    "direction": "",
    "codes": {
        "yandex_code": "s9871252"
    },
    "station_type": "airport",
    "title": "Mara North Airstrip",
    "longitude": 35.12443901274206,
    "transport_type": "plane",
    "latitude": -1.145180695200316
},
{
    "direction": "",
    "codes": {
        "yandex_code": "s9871253"
    },
    "station_type": "airport",
    "title": "Ol Seki Airport",
    "longitude": 35.3853428262329,
    "transport_type": "plane",
    "latitude": -1.3784955729827337
},
{
    "direction": "",
    "codes": {
        "yandex_code": "s9624138"
    },
    "station_type": "airport",
    "title": "Марсабит",
    "longitude": 37.983333,
    "transport_type": "plane",
    "latitude": 2.333333
},
{
    "direction": "",
    "codes": {
        "yandex_code": "s9624771"
    },
    "station_type": "airport",
    "title": "Фергюсонс-Гольф",
    "longitude": 35.833333,
    "transport_type": "plane",
    "latitude": 3.483333
},
{
    "direction": "",
    "codes": {
        "yandex_code": "s9624872"
    },
    "station_type": "airport",
    "title": "Гарисса",
    "longitude": 39.633333,
    "transport_type": "plane",
    "latitude": 0.466667
},
{
    "direction": "",
    "codes": {
        "yandex_code": "s9625120"
    },
    "station_type": "airport",
    "title": "Хола",
    "longitude": 40.033333,
    "transport_type": "plane",
    "latitude": -1.483333
},
{
    "direction": "",
    "codes": {
        "yandex_code": "s9625466"
    },
    "station_type": "airport",
    "title": "Керико",
    "longitude": 35.25,
    "transport_type": "plane",
    "latitude": -0.416667
},
{
    "direction": "",
    "codes": {
        "yandex_code": "s9625665"
    },
    "station_type": "airport",
    "title": "Лэйк-Баринго",
    "longitude": 36.083333,
    "transport_type": "plane",
    "latitude": 0.666667
},
{
    "direction": "",
    "codes": {
        "yandex_code": "s9625825"
    },
    "station_type": "airport",
    "title": "Лоянгалани",
    "longitude": 36.717222,
    "transport_type": "plane",
    "latitude": 2.7525
},
{
    "direction": "",
    "codes": {
        "yandex_code": "s9625924"
    },
    "station_type": "airport",
    "title": "Мандера",
    "longitude": 41.866667,
    "transport_type": "plane",
    "latitude": 3.933333
},
{
    "direction": "",
    "codes": {
        "yandex_code": "s9626226"
    },
    "station_type": "airport",
    "title": "Тороро",
    "longitude": 34.183333,
    "transport_type": "plane",
    "latitude": 0.7
},
{
    "direction": "",
    "codes": {
        "yandex_code": "s9626986"
    },
    "station_type": "airport",
    "title": "Ниери",
    "longitude": 36.966667,
    "transport_type": "plane",
    "latitude": -0.366667
},
{
    "direction": "",
    "codes": {
        "yandex_code": "s9626990"
    },
    "station_type": "airport",
    "title": "Нзоия",
    "longitude": 34.083333,
    "transport_type": "plane",
    "latitude": 0.133333
},
{
    "direction": "",
    "codes": {
        "yandex_code": "s9628792"
    },
    "station_type": "airport",
    "title": "Килагани",
    "longitude": 38.066667,
    "transport_type": "plane",
    "latitude": -2.9
},
{
    "direction": "",
    "codes": {
        "yandex_code": "s9628879"
    },
    "station_type": "airport",
    "title": "Либои",
    "longitude": 40.95,
    "transport_type": "plane",
    "latitude": 0.4
},
{
    "direction": "",
    "codes": {
        "yandex_code": "s9630018"
    },
    "station_type": "airport",
    "title": "Мамиас",
    "longitude": 34.483333,
    "transport_type": "plane",
    "latitude": 0.333333
},
{
    "direction": "",
    "codes": {
        "yandex_code": "s9630817"
    },
    "station_type": "airport",
    "title": "Элийе-Спрингс",
    "longitude": 35.966667,
    "transport_type": "plane",
    "latitude": 3.25
},
{
    "direction": "",
    "codes": {
        "yandex_code": "s9631120"
    },
    "station_type": "airport",
    "title": "Калокол",
    "longitude": 35.833333,
    "transport_type": "plane",
    "latitude": 3.516667
},
{
    "direction": "",
    "codes": {
        "yandex_code": "s9631168"
    },
    "station_type": "airport",
    "title": "Керио-Валей",
    "longitude": 36.116667,
    "transport_type": "plane",
    "latitude": 2.983333
},
{
    "direction": "",
    "codes": {
        "yandex_code": "s9631256"
    },
    "station_type": "airport",
    "title": "Лэйк-Рудольф",
    "longitude": 35.883333,
    "transport_type": "plane",
    "latitude": 3.416667
},
{
    "direction": "",
    "codes": {
        "yandex_code": "s9632509"
    },
    "station_type": "airport",
    "title": "Бамбури",
    "longitude": 39.733333,
    "transport_type": "plane",
    "latitude": -3.95
},
{
    "direction": "",
    "codes": {
        "yandex_code": "s9634959"
    },
    "station_type": "airport",
    "title": "Киунга",
    "longitude": 41.483333,
    "transport_type": "plane",
    "latitude": -1.75
},
{
    "direction": "",
    "codes": {
        "yandex_code": "s9860468"
    },
    "station_type": "airport",
    "title": "Кичва Тембо",
    "longitude": 35.2470196164,
    "transport_type": "plane",
    "latitude": -1.16119534764
},
{
    "direction": "",
    "codes": {
        "yandex_code": "s9860483"
    },
    "station_type": "airport",
    "title": "Олкиомбо",
    "longitude": 35.1737158056,
    "transport_type": "plane",
    "latitude": -1.44617817306
},
{
    "direction": "",
    "codes": {
        "yandex_code": "s9878664"
    },
    "station_type": "airport",
    "title": "Angama",
    "longitude": 34.95291646686371,
    "transport_type": "plane",
    "latitude": -1.2677688939794718
},
{
    "direction": "",
    "codes": {
        "yandex_code": "s9882906"
    },
    "station_type": "airport",
    "title": "Мусиара",
    "longitude": 34.86997044087844,
    "transport_type": "plane",
    "latitude": -1.2855232837111126
},
{
    "direction": "",
    "codes": {
        "yandex_code": "s9882908"
    },
    "station_type": "airport",
    "title": "Кикорок",
    "longitude": 35.20092852700868,
    "transport_type": "plane",
    "latitude": -1.504206065113614
},
{
    "direction": "",
    "codes": {
        "yandex_code": "s9847040"
    },
    "station_type": "airport",
    "title": "Випинго",
    "longitude": 39.807204946871295,
    "transport_type": "plane",
    "latitude": -3.83976678179097
},
{
    "direction": "",
    "codes": {
        "yandex_code": "s9626425"
    },
    "station_type": "airport",
    "title": "Ваджир",
    "longitude": 39.933333,
    "transport_type": "plane",
    "latitude": 1.766667
},
{
    "direction": "",
    "codes": {
        "yandex_code": "s9625679"
    },
    "station_type": "airport",
    "title": "Ламу",
    "longitude": 40.913056,
    "transport_type": "plane",
    "latitude": -2.2525
},
{
    "direction": "",
    "codes": {
        "yandex_code": "s9625513"
    },
    "station_type": "airport",
    "title": "Кисуму",
    "longitude": 34.729722,
    "transport_type": "plane",
    "latitude": -0.085556
},
{
    "direction": "",
    "codes": {
        "yandex_code": "s9626842"
    },
    "station_type": "airport",
    "title": "Джомо Кеньятта",
    "longitude": 36.927778,
    "transport_type": "plane",
    "latitude": -1.319167
},
{
    "direction": "",
    "codes": {
        "yandex_code": "s9630036"
    },
    "station_type": "airport",
    "title": "Вилсон",
    "longitude": 36.814722,
    "transport_type": "plane",
    "latitude": -1.321667
},
{
    "direction": "",
    "codes": {
        "yandex_code": "s9667059"
    },
    "station_type": "airport",
    "title": "Кинна-Меру",
    "longitude": 38.1722222222,
    "transport_type": "plane",
    "latitude": 0.228055555556
},
{
    "direction": "",
    "codes": {
        "yandex_code": "s9628974"
    },
    "station_type": "airport",
    "title": "Момбаса",
    "longitude": 39.583333,
    "transport_type": "plane",
    "latitude": -4.033333
},
{
    "direction": "",
    "codes": {
        "yandex_code": "s9632520"
    },
    "station_type": "airport",
    "title": "Амбосели",
    "longitude": 37.252778,
    "transport_type": "plane",
    "latitude": -2.645
},
{
    "direction": "",
    "codes": {
        "yandex_code": "s9626848"
    },
    "station_type": "airport",
    "title": "Накуру",
    "longitude": 36.15,
    "transport_type": "plane",
    "latitude": -0.3
},
{
    "direction": "",
    "codes": {
        "yandex_code": "s9654566"
    },
    "station_type": "airport",
    "title": "Какамега",
    "longitude": 34.7666666667,
    "transport_type": "plane",
    "latitude": 0.266666666667
},
{
    "direction": "",
    "codes": {
        "yandex_code": "s9630451"
    },
    "station_type": "airport",
    "title": "Сильвер-Крик",
    "longitude": -88.333333,
    "transport_type": "plane",
    "latitude": 16.733333
},
{
    "direction": "",
    "codes": {
        "yandex_code": "s9627060"
    },
    "station_type": "airport",
    "title": "Ориндж-Уолк",
    "longitude": -88.558333,
    "transport_type": "plane",
    "latitude": 18.066667
},
{
    "direction": "",
    "codes": {
        "yandex_code": "s9625221"
    },
    "station_type": "airport",
    "title": "Индепенденс",
    "longitude": -88.433333,
    "transport_type": "plane",
    "latitude": 16.533333
},
{
    "direction": "",
    "codes": {
        "yandex_code": "s9627386"
    },
    "station_type": "airport",
    "title": "Пунта-Горда",
    "longitude": -88.7,
    "transport_type": "plane",
    "latitude": 16.166667
},
{
    "direction": "",
    "codes": {
        "yandex_code": "s9628457"
    },
    "station_type": "airport",
    "title": "Кай-Колкер",
    "longitude": -88.0,
    "transport_type": "plane",
    "latitude": 17.766667
},
{
    "direction": "",
    "codes": {
        "yandex_code": "s9632314"
    },
    "station_type": "airport",
    "title": "Сан-Педро",
    "longitude": -87.966667,
    "transport_type": "plane",
    "latitude": 17.916667
},
{
    "direction": "",
    "codes": {
        "yandex_code": "s9627710"
    },
    "station_type": "airport",
    "title": "Сартанеджа",
    "longitude": -88.333333,
    "transport_type": "plane",
    "latitude": 18.3
},
{
    "direction": "",
    "codes": {
        "yandex_code": "s9628120"
    },
    "station_type": "airport",
    "title": "Белиз-Сити",
    "longitude": -88.183,
    "transport_type": "plane",
    "latitude": 17.5
},
{
    "direction": "",
    "codes": {
        "yandex_code": "s9628182"
    },
    "station_type": "airport",
    "title": "Биг-Крик",
    "longitude": -88.416667,
    "transport_type": "plane",
    "latitude": 16.516667
},
{
    "direction": "",
    "codes": {
        "yandex_code": "s9629933"
    },
    "station_type": "airport",
    "title": "Мелинда",
    "longitude": -88.316667,
    "transport_type": "plane",
    "latitude": 16.999722
},
{
    "direction": "",
    "codes": {
        "yandex_code": "s9635131"
    },
    "station_type": "airport",
    "title": "Санта-Круз",
    "longitude": -88.458333,
    "transport_type": "plane",
    "latitude": 18.275
},
{
    "direction": "",
    "codes": {
        "yandex_code": "s9631906"
    },
    "station_type": "airport",
    "title": "им. Филипа Голдсона",
    "longitude": -88.308203,
    "transport_type": "plane",
    "latitude": 17.539144
},
{
    "direction": "",
    "codes": {
        "yandex_code": "s9634807"
    },
    "station_type": "airport",
    "title": "Коросал",
    "longitude": -88.5,
    "transport_type": "plane",
    "latitude": 18.333333
},
{
    "direction": "",
    "codes": {
        "yandex_code": "s9627250"
    },
    "station_type": "airport",
    "title": "Плаценция",
    "longitude": -88.352778,
    "transport_type": "plane",
    "latitude": 16.533333
},
{
    "direction": "",
    "codes": {
        "yandex_code": "s9624506"
    },
    "station_type": "airport",
    "title": "Дангрига",
    "longitude": -88.583333,
    "transport_type": "plane",
    "latitude": 17.183333
},
{
    "direction": "",
    "codes": {
        "yandex_code": "s9628458"
    },
    "station_type": "airport",
    "title": "Кайе-Чапел",
    "longitude": -88.033333,
    "transport_type": "plane",
    "latitude": 17.7
},
{
    "direction": "",
    "codes": {
        "yandex_code": "s9629254"
    },
    "station_type": "airport",
    "title": "Мэтью Спэйн",
    "longitude": -89.033333,
    "transport_type": "plane",
    "latitude": 17.183333
},
{
    "direction": "",
    "codes": {
        "yandex_code": "s9842438"
    },
    "station_type": "airport",
    "title": "Городской аэропорт",
    "longitude": "",
    "transport_type": "plane",
    "latitude": ""
},
{
    "direction": "",
    "codes": {
        "yandex_code": "s9628130"
    },
    "station_type": "airport",
    "title": "Бельмопан",
    "longitude": -88.783333,
    "transport_type": "plane",
    "latitude": 17.266667
},
{
    "direction": "",
    "codes": {
        "yandex_code": "s9624997"
    },
    "station_type": "airport",
    "title": "Пойнт-Салин",
    "longitude": -61.786111,
    "transport_type": "plane",
    "latitude": 12.004167
},
{
    "direction": "",
    "codes": {
        "yandex_code": "s9629035"
    },
    "station_type": "airport",
    "title": "Нгаундере",
    "longitude": 13.559167,
    "transport_type": "plane",
    "latitude": 7.356944
},
{
    "direction": "",
    "codes": {
        "yandex_code": "s9629490"
    },
    "station_type": "airport",
    "title": "Дуала",
    "longitude": 9.719444,
    "transport_type": "plane",
    "latitude": 4.006111
},
{
    "direction": "",
    "codes": {
        "yandex_code": "s9624603"
    },
    "station_type": "airport",
    "title": "Дшанг",
    "longitude": 10.091667,
    "transport_type": "plane",
    "latitude": 5.833333
},
{
    "direction": "",
    "codes": {
        "yandex_code": "s9624627"
    },
    "station_type": "airport",
    "title": "Эболова",
    "longitude": 11.183333,
    "transport_type": "plane",
    "latitude": 2.85
},
{
    "direction": "",
    "codes": {
        "yandex_code": "s9625339"
    },
    "station_type": "airport",
    "title": "Каеле",
    "longitude": 14.45,
    "transport_type": "plane",
    "latitude": 10.1
},
{
    "direction": "",
    "codes": {
        "yandex_code": "s9626543"
    },
    "station_type": "airport",
    "title": "Ягуа",
    "longitude": 15.237222,
    "transport_type": "plane",
    "latitude": 10.360278
},
{
    "direction": "",
    "codes": {
        "yandex_code": "s9626763"
    },
    "station_type": "airport",
    "title": "Баменда",
    "longitude": 10.116667,
    "transport_type": "plane",
    "latitude": 6.05
},
{
    "direction": "",
    "codes": {
        "yandex_code": "s9626940"
    },
    "station_type": "airport",
    "title": "Нконгсамба",
    "longitude": 9.933333,
    "transport_type": "plane",
    "latitude": 4.95
},
{
    "direction": "",
    "codes": {
        "yandex_code": "s9628159"
    },
    "station_type": "airport",
    "title": "Бертуа",
    "longitude": 13.716667,
    "transport_type": "plane",
    "latitude": 4.55
},
{
    "direction": "",
    "codes": {
        "yandex_code": "s9628907"
    },
    "station_type": "airport",
    "title": "Мамфе",
    "longitude": 9.3,
    "transport_type": "plane",
    "latitude": 5.716667
},
{
    "direction": "",
    "codes": {
        "yandex_code": "s9629555"
    },
    "station_type": "airport",
    "title": "Фумбан",
    "longitude": 10.75,
    "transport_type": "plane",
    "latitude": 5.633333
},
{
    "direction": "",
    "codes": {
        "yandex_code": "s9629743"
    },
    "station_type": "airport",
    "title": "Батури",
    "longitude": 14.356944,
    "transport_type": "plane",
    "latitude": 4.470833
},
{
    "direction": "",
    "codes": {
        "yandex_code": "s9631216"
    },
    "station_type": "airport",
    "title": "Коутаба",
    "longitude": 10.008333,
    "transport_type": "plane",
    "latitude": 5.0
},
{
    "direction": "",
    "codes": {
        "yandex_code": "s9631220"
    },
    "station_type": "airport",
    "title": "Криби",
    "longitude": 9.983333,
    "transport_type": "plane",
    "latitude": 2.866667
},
{
    "direction": "",
    "codes": {
        "yandex_code": "s9631784"
    },
    "station_type": "airport",
    "title": "Бафуссам",
    "longitude": 10.35,
    "transport_type": "plane",
    "latitude": 5.533333
},
{
    "direction": "",
    "codes": {
        "yandex_code": "s9632409"
    },
    "station_type": "airport",
    "title": "Тико",
    "longitude": 9.333333,
    "transport_type": "plane",
    "latitude": 4.116667
},
{
    "direction": "",
    "codes": {
        "yandex_code": "s9634773"
    },
    "station_type": "airport",
    "title": "Бали",
    "longitude": 10.0,
    "transport_type": "plane",
    "latitude": 5.9
},
{
    "direction": "",
    "codes": {
        "yandex_code": "s9625744"
    },
    "station_type": "airport",
    "title": "Лимбе",
    "longitude": 9.2,
    "transport_type": "plane",
    "latitude": 4.016667
},
{
    "direction": "",
    "codes": {
        "yandex_code": "s9624134"
    },
    "station_type": "airport",
    "title": "Мароуа",
    "longitude": 14.2575,
    "transport_type": "plane",
    "latitude": 10.451389
},
{
    "direction": "",
    "codes": {
        "yandex_code": "s9624873"
    },
    "station_type": "airport",
    "title": "Гаруа",
    "longitude": 13.37,
    "transport_type": "plane",
    "latitude": 9.335833
},
{
    "direction": "",
    "codes": {
        "yandex_code": "s9626559"
    },
    "station_type": "airport",
    "title": "Яунде",
    "longitude": 11.523461,
    "transport_type": "plane",
    "latitude": 3.836039
},
{
    "direction": "",
    "codes": {
        "yandex_code": "s9631709"
    },
    "station_type": "airport",
    "title": "Нсимален",
    "longitude": 11.553269,
    "transport_type": "plane",
    "latitude": 3.722556
},
{
    "direction": "",
    "codes": {
        "yandex_code": "s9631390"
    },
    "station_type": "airport",
    "title": "Эрджан",
    "longitude": 33.483333,
    "transport_type": "plane",
    "latitude": 35.15
},
{
    "direction": "",
    "codes": {
        "yandex_code": "s9624415"
    },
    "station_type": "airport",
    "title": "Остров Корн",
    "longitude": -83.058056,
    "transport_type": "plane",
    "latitude": 12.175833
},
{
    "direction": "",
    "codes": {
        "yandex_code": "s9626455"
    },
    "station_type": "airport",
    "title": "Васпам",
    "longitude": -84.083333,
    "transport_type": "plane",
    "latitude": 14.583333
},
{
    "direction": "",
    "codes": {
        "yandex_code": "s9626971"
    },
    "station_type": "airport",
    "title": "Новая Гвинея",
    "longitude": -84.45,
    "transport_type": "plane",
    "latitude": 11.666667
},
{
    "direction": "",
    "codes": {
        "yandex_code": "s9627367"
    },
    "station_type": "airport",
    "title": "Пуэрто-Кабецас",
    "longitude": -83.386667,
    "transport_type": "plane",
    "latitude": 14.047222
},
{
    "direction": "",
    "codes": {
        "yandex_code": "s9627542"
    },
    "station_type": "airport",
    "title": "Росита",
    "longitude": -84.4,
    "transport_type": "plane",
    "latitude": 13.883333
},
{
    "direction": "",
    "codes": {
        "yandex_code": "s9627604"
    },
    "station_type": "airport",
    "title": "Сан-Карлос",
    "longitude": -84.75,
    "transport_type": "plane",
    "latitude": 11.166667
},
{
    "direction": "",
    "codes": {
        "yandex_code": "s9629311"
    },
    "station_type": "airport",
    "title": "Сиуна",
    "longitude": -84.366667,
    "transport_type": "plane",
    "latitude": 13.583333
},
{
    "direction": "",
    "codes": {
        "yandex_code": "s9632574"
    },
    "station_type": "airport",
    "title": "Блюфилдс",
    "longitude": -83.774167,
    "transport_type": "plane",
    "latitude": 11.990833
},
{
    "direction": "",
    "codes": {
        "yandex_code": "s9632579"
    },
    "station_type": "airport",
    "title": "Бонанса",
    "longitude": -84.6,
    "transport_type": "plane",
    "latitude": 13.95
},
{
    "direction": "",
    "codes": {
        "yandex_code": "s9628910"
    },
    "station_type": "airport",
    "title": "им. Аугусто Сандино",
    "longitude": -86.168056,
    "transport_type": "plane",
    "latitude": 12.141389
},
{
    "direction": "",
    "codes": {
        "yandex_code": "s9851247"
    },
    "station_type": "airport",
    "title": "Коста Эсмеральда",
    "longitude": -86.03197441399902,
    "transport_type": "plane",
    "latitude": 11.43233136618177
},
{
    "direction": "",
    "codes": {
        "yandex_code": "s9630497"
    },
    "station_type": "airport",
    "title": "им. Принцессы Юулианы",
    "longitude": -63.108889,
    "transport_type": "plane",
    "latitude": 18.040833
},
{
    "direction": "",
    "codes": {
        "yandex_code": "s9626298"
    },
    "station_type": "airport",
    "title": "Угерске-Градисте",
    "longitude": 17.45,
    "transport_type": "plane",
    "latitude": 49.041667
},
{
    "direction": "",
    "codes": {
        "yandex_code": "s9626596"
    },
    "station_type": "airport",
    "title": "Забржег",
    "longitude": 16.866667,
    "transport_type": "plane",
    "latitude": 49.883333
},
{
    "direction": "",
    "codes": {
        "yandex_code": "s9627347"
    },
    "station_type": "airport",
    "title": "Преров",
    "longitude": 17.466667,
    "transport_type": "plane",
    "latitude": 49.483333
},
{
    "direction": "",
    "codes": {
        "yandex_code": "s9632488"
    },
    "station_type": "airport",
    "title": "Холесов",
    "longitude": 17.566667,
    "transport_type": "plane",
    "latitude": 49.316667
},
{
    "direction": "",
    "codes": {
        "yandex_code": "s9623536"
    },
    "station_type": "airport",
    "title": "имени Вацлава Гавела",
    "longitude": 14.246445,
    "transport_type": "plane",
    "latitude": 50.107743
},
{
    "direction": "",
    "codes": {
        "yandex_code": "s9860460"
    },
    "station_type": "airport",
    "title": "Водоходы",
    "longitude": 14.407563942981056,
    "transport_type": "plane",
    "latitude": 50.22057026717815
},
{
    "direction": "",
    "codes": {
        "yandex_code": "s9600457"
    },
    "station_type": "airport",
    "title": "Брно",
    "longitude": 16.693889,
    "transport_type": "plane",
    "latitude": 49.151389
},
{
    "direction": "",
    "codes": {
        "yandex_code": "s9623971"
    },
    "station_type": "airport",
    "title": "Пардубице",
    "longitude": 15.738611,
    "transport_type": "plane",
    "latitude": 50.013333
},
{
    "direction": "",
    "codes": {
        "yandex_code": "s9627038"
    },
    "station_type": "airport",
    "title": "Оломоуц",
    "longitude": 17.341667,
    "transport_type": "plane",
    "latitude": 49.416667
},
{
    "direction": "",
    "codes": {
        "yandex_code": "s9600464"
    },
    "station_type": "airport",
    "title": "Острава",
    "longitude": 18.110833,
    "transport_type": "plane",
    "latitude": 49.696111
},
{
    "direction": "",
    "codes": {
        "yandex_code": "s9624118"
    },
    "station_type": "airport",
    "title": "Марианске-Лазне",
    "longitude": 12.716667,
    "transport_type": "plane",
    "latitude": 49.983333
},
{
    "direction": "",
    "codes": {
        "yandex_code": "s9623593"
    },
    "station_type": "airport",
    "title": "Карловы Вары",
    "longitude": 12.915,
    "transport_type": "plane",
    "latitude": 50.203056
},
{
    "direction": "",
    "codes": {
        "yandex_code": "s9624258"
    },
    "station_type": "airport",
    "title": "Остров-Мидвей",
    "longitude": -177.383333,
    "transport_type": "plane",
    "latitude": 28.2
},
{
    "direction": "",
    "codes": {
        "yandex_code": "s9626426"
    },
    "station_type": "airport",
    "title": "Уэйк-Айленд",
    "longitude": 166.583333,
    "transport_type": "plane",
    "latitude": 19.3
},
{
    "direction": "",
    "codes": {
        "yandex_code": "s9634942"
    },
    "station_type": "airport",
    "title": "Джонстон-Айленд",
    "longitude": -169.533333,
    "transport_type": "plane",
    "latitude": 16.733333
},
{
    "direction": "",
    "codes": {
        "yandex_code": "s9628627"
    },
    "station_type": "airport",
    "title": "Футуна",
    "longitude": -178.066111,
    "transport_type": "plane",
    "latitude": -14.311389
},
{
    "direction": "",
    "codes": {
        "yandex_code": "s9626433"
    },
    "station_type": "airport",
    "title": "Хихифо",
    "longitude": -176.198889,
    "transport_type": "plane",
    "latitude": -13.238333
},
{
    "direction": "",
    "codes": {
        "yandex_code": "s9632302"
    },
    "station_type": "airport",
    "title": "Рота",
    "longitude": 145.2425,
    "transport_type": "plane",
    "latitude": 14.174444
},
{
    "direction": "",
    "codes": {
        "yandex_code": "s9629225"
    },
    "station_type": "airport",
    "title": "Сайпан Интернэшинл",
    "longitude": 145.729444,
    "transport_type": "plane",
    "latitude": 15.118889
},
{
    "direction": "",
    "codes": {
        "yandex_code": "s9626097"
    },
    "station_type": "airport",
    "title": "Тасиилак",
    "longitude": -37.666667,
    "transport_type": "plane",
    "latitude": 65.666667
},
{
    "direction": "",
    "codes": {
        "yandex_code": "s9801000"
    },
    "station_type": "airport",
    "title": "Нуугаатсиак",
    "longitude": -53.205,
    "transport_type": "plane",
    "latitude": 73.5386111111
},
{
    "direction": "",
    "codes": {
        "yandex_code": "s9631226"
    },
    "station_type": "airport",
    "title": "Калусук",
    "longitude": -37.15,
    "transport_type": "plane",
    "latitude": 65.583333
},
{
    "direction": "",
    "codes": {
        "yandex_code": "s9630661"
    },
    "station_type": "airport",
    "title": "Уумманнак",
    "longitude": -52.696111,
    "transport_type": "plane",
    "latitude": 70.734167
},
{
    "direction": "",
    "codes": {
        "yandex_code": "s9634940"
    },
    "station_type": "airport",
    "title": "Нарсак",
    "longitude": -46.066667,
    "transport_type": "plane",
    "latitude": 60.916667
},
{
    "direction": "",
    "codes": {
        "yandex_code": "s9813712"
    },
    "station_type": "airport",
    "title": "Ааппилатток",
    "longitude": -44.2869444444,
    "transport_type": "plane",
    "latitude": 60.1480555556
},
{
    "direction": "",
    "codes": {
        "yandex_code": "s9634934"
    },
    "station_type": "airport",
    "title": "Какорток",
    "longitude": -46.0,
    "transport_type": "plane",
    "latitude": 60.75
},
{
    "direction": "",
    "codes": {
        "yandex_code": "s9632183"
    },
    "station_type": "airport",
    "title": "Нарсарсуак",
    "longitude": -45.426111,
    "transport_type": "plane",
    "latitude": 61.160556
},
{
    "direction": "",
    "codes": {
        "yandex_code": "s9627988"
    },
    "station_type": "airport",
    "title": "Аасиаат",
    "longitude": -52.85,
    "transport_type": "plane",
    "latitude": 68.716667
},
{
    "direction": "",
    "codes": {
        "yandex_code": "s9800999"
    },
    "station_type": "airport",
    "title": "Ниакорнат",
    "longitude": -53.9165590812,
    "transport_type": "plane",
    "latitude": 70.7598173929
},
{
    "direction": "",
    "codes": {
        "yandex_code": "s9627393"
    },
    "station_type": "airport",
    "title": "Касигианнгуит",
    "longitude": -51.0,
    "transport_type": "plane",
    "latitude": 68.833333
},
{
    "direction": "",
    "codes": {
        "yandex_code": "s9801002"
    },
    "station_type": "airport",
    "title": "Экалугаарсуит",
    "longitude": -45.9,
    "transport_type": "plane",
    "latitude": 60.6333333333
},
{
    "direction": "",
    "codes": {
        "yandex_code": "s9800996"
    },
    "station_type": "airport",
    "title": "Кангерсуатсиак",
    "longitude": -55.5366666667,
    "transport_type": "plane",
    "latitude": 72.3811111111
},
{
    "direction": "",
    "codes": {
        "yandex_code": "s9625255"
    },
    "station_type": "airport",
    "title": "Иттоккортурмиит",
    "longitude": -22.016667,
    "transport_type": "plane",
    "latitude": 70.483333
},
{
    "direction": "",
    "codes": {
        "yandex_code": "s9799097"
    },
    "station_type": "airport",
    "title": "Саарлок",
    "longitude": "",
    "transport_type": "plane",
    "latitude": ""
},
{
    "direction": "",
    "codes": {
        "yandex_code": "s9829876"
    },
    "station_type": "airport",
    "title": "Saarloq Heliport",
    "longitude": -46.0247222222222,
    "transport_type": "plane",
    "latitude": 60.5380555555556
},
{
    "direction": "",
    "codes": {
        "yandex_code": "s9626983"
    },
    "station_type": "airport",
    "title": "Нук",
    "longitude": -51.678056,
    "transport_type": "plane",
    "latitude": 64.190833
},
{
    "direction": "",
    "codes": {
        "yandex_code": "s9799093"
    },
    "station_type": "airport",
    "title": "Кассумиут",
    "longitude": "",
    "transport_type": "plane",
    "latitude": ""
},
{
    "direction": "",
    "codes": {
        "yandex_code": "s9829872"
    },
    "station_type": "airport",
    "title": "Кассимиут",
    "longitude": -47.1522222222,
    "transport_type": "plane",
    "latitude": 60.7794444444
},
{
    "direction": "",
    "codes": {
        "yandex_code": "s9624610"
    },
    "station_type": "airport",
    "title": "Дундас",
    "longitude": -68.8,
    "transport_type": "plane",
    "latitude": 76.566667
},
{
    "direction": "",
    "codes": {
        "yandex_code": "s9626677"
    },
    "station_type": "airport",
    "title": "Арсук",
    "longitude": -48.416667,
    "transport_type": "plane",
    "latitude": 61.166667
},
{
    "direction": "",
    "codes": {
        "yandex_code": "s9634930"
    },
    "station_type": "airport",
    "title": "Греннедаль",
    "longitude": -48.1,
    "transport_type": "plane",
    "latitude": 61.333333
},
{
    "direction": "",
    "codes": {
        "yandex_code": "s9634948"
    },
    "station_type": "airport",
    "title": "Маниитсок",
    "longitude": -52.9,
    "transport_type": "plane",
    "latitude": 65.416667
},
{
    "direction": "",
    "codes": {
        "yandex_code": "s9635185"
    },
    "station_type": "airport",
    "title": "Окатсут",
    "longitude": -51.0,
    "transport_type": "plane",
    "latitude": 69.333333
},
{
    "direction": "",
    "codes": {
        "yandex_code": "s9800990"
    },
    "station_type": "airport",
    "title": "Куллорсуак",
    "longitude": -57.2355555556,
    "transport_type": "plane",
    "latitude": 74.5794444444
},
{
    "direction": "",
    "codes": {
        "yandex_code": "s9800992"
    },
    "station_type": "airport",
    "title": "Нууссуак",
    "longitude": -57.065,
    "transport_type": "plane",
    "latitude": 74.1097222222
},
{
    "direction": "",
    "codes": {
        "yandex_code": "s9800997"
    },
    "station_type": "airport",
    "title": "Уккусиссат",
    "longitude": -51.8836111111,
    "transport_type": "plane",
    "latitude": 71.0552777778
},
{
    "direction": "",
    "codes": {
        "yandex_code": "s9801001"
    },
    "station_type": "airport",
    "title": "Икерасак",
    "longitude": -51.3030555556,
    "transport_type": "plane",
    "latitude": 70.4980555556
},
{
    "direction": "",
    "codes": {
        "yandex_code": "s9799095"
    },
    "station_type": "airport",
    "title": "Нарсак-Куяллек",
    "longitude": "",
    "transport_type": "plane",
    "latitude": ""
},
{
    "direction": "",
    "codes": {
        "yandex_code": "s9829873"
    },
    "station_type": "airport",
    "title": "Narsaq Kujalleq Heliport",
    "longitude": -44.6552777777778,
    "transport_type": "plane",
    "latitude": 60.0044444444444
},
{
    "direction": "",
    "codes": {
        "yandex_code": "s9799094"
    },
    "station_type": "airport",
    "title": "Оппилатток",
    "longitude": "",
    "transport_type": "plane",
    "latitude": ""
},
{
    "direction": "",
    "codes": {
        "yandex_code": "s9800991"
    },
    "station_type": "airport",
    "title": "Ааппилатток",
    "longitude": -55.5961111111,
    "transport_type": "plane",
    "latitude": 72.8869444444
},
{
    "direction": "",
    "codes": {
        "yandex_code": "s9800995"
    },
    "station_type": "airport",
    "title": "Упернавик-Куяллек",
    "longitude": -55.5311111111,
    "transport_type": "plane",
    "latitude": 72.1527777778
},
{
    "direction": "",
    "codes": {
        "yandex_code": "s9800998"
    },
    "station_type": "airport",
    "title": "Иллорсуит",
    "longitude": -53.5555555556,
    "transport_type": "plane",
    "latitude": 71.2397222222
},
{
    "direction": "",
    "codes": {
        "yandex_code": "s9635080"
    },
    "station_type": "airport",
    "title": "Атту",
    "longitude": -52.0,
    "transport_type": "plane",
    "latitude": 65.5
},
{
    "direction": "",
    "codes": {
        "yandex_code": "s9635088"
    },
    "station_type": "airport",
    "title": "Саккак",
    "longitude": -53.5,
    "transport_type": "plane",
    "latitude": 66.333333
},
{
    "direction": "",
    "codes": {
        "yandex_code": "s9635086"
    },
    "station_type": "airport",
    "title": "Икерасаарсук",
    "longitude": -53.45,
    "transport_type": "plane",
    "latitude": 68.15
},
{
    "direction": "",
    "codes": {
        "yandex_code": "s9772986"
    },
    "station_type": "airport",
    "title": "Кекертак",
    "longitude": -51.2830555556,
    "transport_type": "plane",
    "latitude": 70.0
},
{
    "direction": "",
    "codes": {
        "yandex_code": "s9635081"
    },
    "station_type": "airport",
    "title": "Китсиссуасуит",
    "longitude": -53.166667,
    "transport_type": "plane",
    "latitude": 68.883333
},
{
    "direction": "",
    "codes": {
        "yandex_code": "s9635079"
    },
    "station_type": "airport",
    "title": "Игинниарфик",
    "longitude": -53.166667,
    "transport_type": "plane",
    "latitude": 68.15
},
{
    "direction": "",
    "codes": {
        "yandex_code": "s9625208"
    },
    "station_type": "airport",
    "title": "Тасьюасак-Харбор",
    "longitude": -44.633333,
    "transport_type": "plane",
    "latitude": 60.266667
},
{
    "direction": "",
    "codes": {
        "yandex_code": "s9632514"
    },
    "station_type": "airport",
    "title": "Оллуитсап-Паа",
    "longitude": -45.566667,
    "transport_type": "plane",
    "latitude": 60.466667
},
{
    "direction": "",
    "codes": {
        "yandex_code": "s9801004"
    },
    "station_type": "airport",
    "title": "Исорток",
    "longitude": -38.9677777778,
    "transport_type": "plane",
    "latitude": 65.5466666667
},
{
    "direction": "",
    "codes": {
        "yandex_code": "s9627391"
    },
    "station_type": "airport",
    "title": "Каанаак",
    "longitude": -69.483333,
    "transport_type": "plane",
    "latitude": 77.5
},
{
    "direction": "",
    "codes": {
        "yandex_code": "s9627248"
    },
    "station_type": "airport",
    "title": "Питуффик",
    "longitude": -68.75,
    "transport_type": "plane",
    "latitude": 76.533333
},
{
    "direction": "",
    "codes": {
        "yandex_code": "s9626898"
    },
    "station_type": "airport",
    "title": "Нерлерит Инаат",
    "longitude": -22.660556,
    "transport_type": "plane",
    "latitude": 70.743333
},
{
    "direction": "",
    "codes": {
        "yandex_code": "s9629191"
    },
    "station_type": "airport",
    "title": "Кекертарсуак",
    "longitude": -53.538056,
    "transport_type": "plane",
    "latitude": 69.251111
},
{
    "direction": "",
    "codes": {
        "yandex_code": "s9627392"
    },
    "station_type": "airport",
    "title": "Каарсут",
    "longitude": -52.702778,
    "transport_type": "plane",
    "latitude": 70.731944
},
{
    "direction": "",
    "codes": {
        "yandex_code": "s9625386"
    },
    "station_type": "airport",
    "title": "Кангерлуссуак",
    "longitude": -50.689444,
    "transport_type": "plane",
    "latitude": 67.016944
},
{
    "direction": "",
    "codes": {
        "yandex_code": "s9634950"
    },
    "station_type": "airport",
    "title": "Упернавик",
    "longitude": -56.0,
    "transport_type": "plane",
    "latitude": 72.833333
},
{
    "direction": "",
    "codes": {
        "yandex_code": "s9625213"
    },
    "station_type": "airport",
    "title": "Илулиссат",
    "longitude": -51.0,
    "transport_type": "plane",
    "latitude": 69.166667
},
{
    "direction": "",
    "codes": {
        "yandex_code": "s9801003"
    },
    "station_type": "airport",
    "title": "Тинитекилаак",
    "longitude": -37.7833333333,
    "transport_type": "plane",
    "latitude": 65.8919444444
},
{
    "direction": "",
    "codes": {
        "yandex_code": "s9800980"
    },
    "station_type": "airport",
    "title": "Игалику",
    "longitude": "",
    "transport_type": "plane",
    "latitude": ""
},
{
    "direction": "",
    "codes": {
        "yandex_code": "s9829874"
    },
    "station_type": "airport",
    "title": "Igaliku Heliport",
    "longitude": -45.4211111111111,
    "transport_type": "plane",
    "latitude": 60.9911111111111
},
{
    "direction": "",
    "codes": {
        "yandex_code": "s9629078"
    },
    "station_type": "airport",
    "title": "Паамиут",
    "longitude": -49.666667,
    "transport_type": "plane",
    "latitude": 62.0
},
{
    "direction": "",
    "codes": {
        "yandex_code": "s9630457"
    },
    "station_type": "airport",
    "title": "Сисимиут",
    "longitude": -53.729444,
    "transport_type": "plane",
    "latitude": 66.951389
},
{
    "direction": "",
    "codes": {
        "yandex_code": "s9626866"
    },
    "station_type": "airport",
    "title": "Нанорталик",
    "longitude": -45.083333,
    "transport_type": "plane",
    "latitude": 60.166667
},
{
    "direction": "",
    "codes": {
        "yandex_code": "s9799096"
    },
    "station_type": "airport",
    "title": "Кассиарсук",
    "longitude": "",
    "transport_type": "plane",
    "latitude": ""
},
{
    "direction": "",
    "codes": {
        "yandex_code": "s9829875"
    },
    "station_type": "airport",
    "title": "Кассиарсук",
    "longitude": -45.5133333333,
    "transport_type": "plane",
    "latitude": 61.1436111111
},
{
    "direction": "",
    "codes": {
        "yandex_code": "s9800993"
    },
    "station_type": "airport",
    "title": "Иннаарсуит",
    "longitude": -56.0111111111,
    "transport_type": "plane",
    "latitude": 73.2025
},
{
    "direction": "",
    "codes": {
        "yandex_code": "s9800994"
    },
    "station_type": "airport",
    "title": "Тасиусак",
    "longitude": -56.0602777778,
    "transport_type": "plane",
    "latitude": 73.3730555556
},
{
    "direction": "",
    "codes": {
        "yandex_code": "s9635084"
    },
    "station_type": "airport",
    "title": "Кангаатсиак",
    "longitude": -53.416667,
    "transport_type": "plane",
    "latitude": 68.316667
},
{
    "direction": "",
    "codes": {
        "yandex_code": "s9635078"
    },
    "station_type": "airport",
    "title": "Акуннаак",
    "longitude": -52.333333,
    "transport_type": "plane",
    "latitude": 68.733333
},
{
    "direction": "",
    "codes": {
        "yandex_code": "s9799092"
    },
    "station_type": "airport",
    "title": "Аммассивик",
    "longitude": "",
    "transport_type": "plane",
    "latitude": ""
},
{
    "direction": "",
    "codes": {
        "yandex_code": "s9829871"
    },
    "station_type": "airport",
    "title": "Ammassivik Heliport",
    "longitude": -45.38728123078757,
    "transport_type": "plane",
    "latitude": 60.595249528123915
},
{
    "direction": "",
    "codes": {
        "yandex_code": "s9635082"
    },
    "station_type": "airport",
    "title": "Икамиут",
    "longitude": -51.833333,
    "transport_type": "plane",
    "latitude": 68.633333
},
{
    "direction": "",
    "codes": {
        "yandex_code": "s9635083"
    },
    "station_type": "airport",
    "title": "Ниакорнаарсук",
    "longitude": -52.883333,
    "transport_type": "plane",
    "latitude": 68.25
},
{
    "direction": "",
    "codes": {
        "yandex_code": "s9635188"
    },
    "station_type": "airport",
    "title": "Илиманак",
    "longitude": -51.0,
    "transport_type": "plane",
    "latitude": 69.0
},
{
    "direction": "",
    "codes": {
        "yandex_code": "s9632442"
    },
    "station_type": "airport",
    "title": "Ванимо",
    "longitude": 141.302222,
    "transport_type": "plane",
    "latitude": -2.697222
},
{
    "direction": "",
    "codes": {
        "yandex_code": "s9626792"
    },
    "station_type": "airport",
    "title": "Алотау",
    "longitude": 150.35,
    "transport_type": "plane",
    "latitude": -10.333333
},
{
    "direction": "",
    "codes": {
        "yandex_code": "s9630511"
    },
    "station_type": "airport",
    "title": "Стокгольм",
    "longitude": 151.966667,
    "transport_type": "plane",
    "latitude": -4.566667
},
{
    "direction": "",
    "codes": {
        "yandex_code": "s9628933"
    },
    "station_type": "airport",
    "title": "Остров Манус",
    "longitude": 147.416667,
    "transport_type": "plane",
    "latitude": -2.066667
},
{
    "direction": "",
    "codes": {
        "yandex_code": "s9629807"
    },
    "station_type": "airport",
    "title": "Бука",
    "longitude": 154.672778,
    "transport_type": "plane",
    "latitude": -5.422222
},
{
    "direction": "",
    "codes": {
        "yandex_code": "s9627816"
    },
    "station_type": "airport",
    "title": "Сим",
    "longitude": 146.833333,
    "transport_type": "plane",
    "latitude": -7.666667
},
{
    "direction": "",
    "codes": {
        "yandex_code": "s9630242"
    },
    "station_type": "airport",
    "title": "Джэксон-Филд",
    "longitude": 147.22,
    "transport_type": "plane",
    "latitude": -9.443333
},
{
    "direction": "",
    "codes": {
        "yandex_code": "s9629572"
    },
    "station_type": "airport",
    "title": "Вевак",
    "longitude": 143.647198581744,
    "transport_type": "plane",
    "latitude": -3.62804143214176
},
{
    "direction": "",
    "codes": {
        "yandex_code": "s9625398"
    },
    "station_type": "airport",
    "title": "Капал",
    "longitude": 142.824444,
    "transport_type": "plane",
    "latitude": -8.633333
},
{
    "direction": "",
    "codes": {
        "yandex_code": "s9626004"
    },
    "station_type": "airport",
    "title": "Саки",
    "longitude": 141.716667,
    "transport_type": "plane",
    "latitude": -8.15
},
{
    "direction": "",
    "codes": {
        "yandex_code": "s9624133"
    },
    "station_type": "airport",
    "title": "Марон",
    "longitude": 145.033333,
    "transport_type": "plane",
    "latitude": -1.55
},
{
    "direction": "",
    "codes": {
        "yandex_code": "s9624148"
    },
    "station_type": "airport",
    "title": "Маза",
    "longitude": 147.633333,
    "transport_type": "plane",
    "latitude": -6.35
},
{
    "direction": "",
    "codes": {
        "yandex_code": "s9624224"
    },
    "station_type": "airport",
    "title": "Меньямья",
    "longitude": 146.016667,
    "transport_type": "plane",
    "latitude": -7.2
},
{
    "direction": "",
    "codes": {
        "yandex_code": "s9624278"
    },
    "station_type": "airport",
    "title": "Миндж",
    "longitude": 144.666667,
    "transport_type": "plane",
    "latitude": -5.866667
},
{
    "direction": "",
    "codes": {
        "yandex_code": "s9624294"
    },
    "station_type": "airport",
    "title": "Миянмин",
    "longitude": 141.616667,
    "transport_type": "plane",
    "latitude": -4.9
},
{
    "direction": "",
    "codes": {
        "yandex_code": "s9624312"
    },
    "station_type": "airport",
    "title": "Моно",
    "longitude": 155.565278,
    "transport_type": "plane",
    "latitude": -7.416667
},
{
    "direction": "",
    "codes": {
        "yandex_code": "s9624335"
    },
    "station_type": "airport",
    "title": "Морехед",
    "longitude": 141.633333,
    "transport_type": "plane",
    "latitude": -8.716667
},
{
    "direction": "",
    "codes": {
        "yandex_code": "s9624360"
    },
    "station_type": "airport",
    "title": "Маунт-Оу",
    "longitude": 144.65,
    "transport_type": "plane",
    "latitude": -6.233333
},
{
    "direction": "",
    "codes": {
        "yandex_code": "s9624484"
    },
    "station_type": "airport",
    "title": "Дабо",
    "longitude": 147.849444,
    "transport_type": "plane",
    "latitude": -8.433333
},
{
    "direction": "",
    "codes": {
        "yandex_code": "s9624491"
    },
    "station_type": "airport",
    "title": "Далбертис",
    "longitude": 142.083333,
    "transport_type": "plane",
    "latitude": -5.0
},
{
    "direction": "",
    "codes": {
        "yandex_code": "s9624518"
    },
    "station_type": "airport",
    "title": "Доп",
    "longitude": 144.95,
    "transport_type": "plane",
    "latitude": -4.733333
},
{
    "direction": "",
    "codes": {
        "yandex_code": "s9624533"
    },
    "station_type": "airport",
    "title": "Дебепаре",
    "longitude": 141.9,
    "transport_type": "plane",
    "latitude": -6.283333
},
{
    "direction": "",
    "codes": {
        "yandex_code": "s9624558"
    },
    "station_type": "airport",
    "title": "Дерим",
    "longitude": 146.816667,
    "transport_type": "plane",
    "latitude": -6.1
},
{
    "direction": "",
    "codes": {
        "yandex_code": "s9624608"
    },
    "station_type": "airport",
    "title": "Думпу",
    "longitude": 145.75,
    "transport_type": "plane",
    "latitude": -5.833333
},
{
    "direction": "",
    "codes": {
        "yandex_code": "s9624638"
    },
    "station_type": "airport",
    "title": "Попондетта",
    "longitude": 147.85,
    "transport_type": "plane",
    "latitude": -8.2
},
{
    "direction": "",
    "codes": {
        "yandex_code": "s9624674"
    },
    "station_type": "airport",
    "title": "Элиптамин",
    "longitude": 141.666667,
    "transport_type": "plane",
    "latitude": -5.033333
},
{
    "direction": "",
    "codes": {
        "yandex_code": "s9624683"
    },
    "station_type": "airport",
    "title": "Эмбесса",
    "longitude": 148.766667,
    "transport_type": "plane",
    "latitude": -9.45
},
{
    "direction": "",
    "codes": {
        "yandex_code": "s9624684"
    },
    "station_type": "airport",
    "title": "Эмирау",
    "longitude": 149.966667,
    "transport_type": "plane",
    "latitude": -1.65
},
{
    "direction": "",
    "codes": {
        "yandex_code": "s9624693"
    },
    "station_type": "airport",
    "title": "Энгати",
    "longitude": 146.1,
    "transport_type": "plane",
    "latitude": -6.916667
},
{
    "direction": "",
    "codes": {
        "yandex_code": "s9624711"
    },
    "station_type": "airport",
    "title": "Эруме",
    "longitude": 147.083333,
    "transport_type": "plane",
    "latitude": -8.416667
},
{
    "direction": "",
    "codes": {
        "yandex_code": "s9624755"
    },
    "station_type": "airport",
    "title": "Фейн",
    "longitude": 147.233333,
    "transport_type": "plane",
    "latitude": -8.6
},
{
    "direction": "",
    "codes": {
        "yandex_code": "s9624836"
    },
    "station_type": "airport",
    "title": "Фума",
    "longitude": 142.433333,
    "transport_type": "plane",
    "latitude": -6.383333
},
{
    "direction": "",
    "codes": {
        "yandex_code": "s9624867"
    },
    "station_type": "airport",
    "title": "Гарайна",
    "longitude": 147.133333,
    "transport_type": "plane",
    "latitude": -7.866667
},
{
    "direction": "",
    "codes": {
        "yandex_code": "s9624868"
    },
    "station_type": "airport",
    "title": "Гараса",
    "longitude": 147.183333,
    "transport_type": "plane",
    "latitude": -7.95
},
{
    "direction": "",
    "codes": {
        "yandex_code": "s9624874"
    },
    "station_type": "airport",
    "title": "Гаруахи",
    "longitude": 150.683333,
    "transport_type": "plane",
    "latitude": -10.316667
},
{
    "direction": "",
    "codes": {
        "yandex_code": "s9624877"
    },
    "station_type": "airport",
    "title": "Гасуке",
    "longitude": 141.733333,
    "transport_type": "plane",
    "latitude": -6.1
},
{
    "direction": "",
    "codes": {
        "yandex_code": "s9624905"
    },
    "station_type": "airport",
    "title": "Гевойя",
    "longitude": 148.483333,
    "transport_type": "plane",
    "latitude": -9.183333
},
{
    "direction": "",
    "codes": {
        "yandex_code": "s9624932"
    },
    "station_type": "airport",
    "title": "Гнаровейн",
    "longitude": 146.25,
    "transport_type": "plane",
    "latitude": -6.566667
},
{
    "direction": "",
    "codes": {
        "yandex_code": "s9624943"
    },
    "station_type": "airport",
    "title": "Гоналиа",
    "longitude": 151.866667,
    "transport_type": "plane",
    "latitude": -5.383333
},
{
    "direction": "",
    "codes": {
        "yandex_code": "s9624989"
    },
    "station_type": "airport",
    "title": "Грин-Айлендз",
    "longitude": 154.166667,
    "transport_type": "plane",
    "latitude": -4.5
},
{
    "direction": "",
    "codes": {
        "yandex_code": "s9625023"
    },
    "station_type": "airport",
    "title": "Гуриасо",
    "longitude": 141.583333,
    "transport_type": "plane",
    "latitude": -3.583333
},
{
    "direction": "",
    "codes": {
        "yandex_code": "s9625064"
    },
    "station_type": "airport",
    "title": "Хавабанго",
    "longitude": 145.966667,
    "transport_type": "plane",
    "latitude": -7.433333
},
{
    "direction": "",
    "codes": {
        "yandex_code": "s9625079"
    },
    "station_type": "airport",
    "title": "Хейвени",
    "longitude": 146.466667,
    "transport_type": "plane",
    "latitude": -7.4
},
{
    "direction": "",
    "codes": {
        "yandex_code": "s9625129"
    },
    "station_type": "airport",
    "title": "Хонинаби",
    "longitude": 142.216667,
    "transport_type": "plane",
    "latitude": -6.233333
},
{
    "direction": "",
    "codes": {
        "yandex_code": "s9625183"
    },
    "station_type": "airport",
    "title": "Иамалеле",
    "longitude": 150.5,
    "transport_type": "plane",
    "latitude": -9.5
},
{
    "direction": "",
    "codes": {
        "yandex_code": "s9625188"
    },
    "station_type": "airport",
    "title": "Ибоки",
    "longitude": 149.188889,
    "transport_type": "plane",
    "latitude": -5.552778
},
{
    "direction": "",
    "codes": {
        "yandex_code": "s9625196"
    },
    "station_type": "airport",
    "title": "Иху",
    "longitude": 145.4,
    "transport_type": "plane",
    "latitude": -7.9
},
{
    "direction": "",
    "codes": {
        "yandex_code": "s9625204"
    },
    "station_type": "airport",
    "title": "Илег",
    "longitude": 145.833333,
    "transport_type": "plane",
    "latitude": -5.483333
},
{
    "direction": "",
    "codes": {
        "yandex_code": "s9625216"
    },
    "station_type": "airport",
    "title": "Имонда",
    "longitude": 141.166667,
    "transport_type": "plane",
    "latitude": -3.35
},
{
    "direction": "",
    "codes": {
        "yandex_code": "s9625235"
    },
    "station_type": "airport",
    "title": "Иокеа",
    "longitude": 146.266667,
    "transport_type": "plane",
    "latitude": -8.4
},
{
    "direction": "",
    "codes": {
        "yandex_code": "s9625315"
    },
    "station_type": "airport",
    "title": "Джозефстаал",
    "longitude": 145.016667,
    "transport_type": "plane",
    "latitude": -4.75
},
{
    "direction": "",
    "codes": {
        "yandex_code": "s9625341"
    },
    "station_type": "airport",
    "title": "Кагуа",
    "longitude": 143.833333,
    "transport_type": "plane",
    "latitude": -6.333333
},
{
    "direction": "",
    "codes": {
        "yandex_code": "s9625344"
    },
    "station_type": "airport",
    "title": "Кайапит",
    "longitude": 146.25,
    "transport_type": "plane",
    "latitude": -6.266667
},
{
    "direction": "",
    "codes": {
        "yandex_code": "s9625347"
    },
    "station_type": "airport",
    "title": "Каинтиба",
    "longitude": 145.883333,
    "transport_type": "plane",
    "latitude": -7.8
},
{
    "direction": "",
    "codes": {
        "yandex_code": "s9625370"
    },
    "station_type": "airport",
    "title": "Камбератор",
    "longitude": 141.05,
    "transport_type": "plane",
    "latitude": -3.605556
},
{
    "direction": "",
    "codes": {
        "yandex_code": "s9625373"
    },
    "station_type": "airport",
    "title": "Камина",
    "longitude": 145.533333,
    "transport_type": "plane",
    "latitude": -7.25
},
{
    "direction": "",
    "codes": {
        "yandex_code": "s9625374"
    },
    "station_type": "airport",
    "title": "Камираба",
    "longitude": 151.25,
    "transport_type": "plane",
    "latitude": -2.883333
},
{
    "direction": "",
    "codes": {
        "yandex_code": "s9625379"
    },
    "station_type": "airport",
    "title": "Канабеа",
    "longitude": 145.9,
    "transport_type": "plane",
    "latitude": -7.766667
},
{
    "direction": "",
    "codes": {
        "yandex_code": "s9625380"
    },
    "station_type": "airport",
    "title": "Канаиндж",
    "longitude": 144.7,
    "transport_type": "plane",
    "latitude": -5.283333
},
{
    "direction": "",
    "codes": {
        "yandex_code": "s9625384"
    },
    "station_type": "airport",
    "title": "Кандриян",
    "longitude": 149.55,
    "transport_type": "plane",
    "latitude": -6.216667
},
{
    "direction": "",
    "codes": {
        "yandex_code": "s9625395"
    },
    "station_type": "airport",
    "title": "Кануа",
    "longitude": 154.75,
    "transport_type": "plane",
    "latitude": -5.338889
},
{
    "direction": "",
    "codes": {
        "yandex_code": "s9625401"
    },
    "station_type": "airport",
    "title": "Кар",
    "longitude": 143.483333,
    "transport_type": "plane",
    "latitude": -6.216667
},
{
    "direction": "",
    "codes": {
        "yandex_code": "s9625405"
    },
    "station_type": "airport",
    "title": "Карато",
    "longitude": 155.35,
    "transport_type": "plane",
    "latitude": -6.283333
},
{
    "direction": "",
    "codes": {
        "yandex_code": "s9625406"
    },
    "station_type": "airport",
    "title": "Каравари",
    "longitude": 147.497222,
    "transport_type": "plane",
    "latitude": -8.75
},
{
    "direction": "",
    "codes": {
        "yandex_code": "s9625452"
    },
    "station_type": "airport",
    "title": "Келаноа",
    "longitude": 147.5,
    "transport_type": "plane",
    "latitude": -6.0
},
{
    "direction": "",
    "codes": {
        "yandex_code": "s9625483"
    },
    "station_type": "airport",
    "title": "Кибули",
    "longitude": 142.695278,
    "transport_type": "plane",
    "latitude": -9.016667
},
{
    "direction": "",
    "codes": {
        "yandex_code": "s9625504"
    },
    "station_type": "airport",
    "title": "Кира",
    "longitude": 147.083333,
    "transport_type": "plane",
    "latitude": -7.633333
},
{
    "direction": "",
    "codes": {
        "yandex_code": "s9625510"
    },
    "station_type": "airport",
    "title": "Кисенган",
    "longitude": 146.716667,
    "transport_type": "plane",
    "latitude": -6.35
},
{
    "direction": "",
    "codes": {
        "yandex_code": "s9625515"
    },
    "station_type": "airport",
    "title": "Китава",
    "longitude": 151.333333,
    "transport_type": "plane",
    "latitude": -8.666667
},
{
    "direction": "",
    "codes": {
        "yandex_code": "s9625537"
    },
    "station_type": "airport",
    "title": "Коинамбе",
    "longitude": 144.616667,
    "transport_type": "plane",
    "latitude": -5.5
},
{
    "direction": "",
    "codes": {
        "yandex_code": "s9625542"
    },
    "station_type": "airport",
    "title": "Кол",
    "longitude": 144.85,
    "transport_type": "plane",
    "latitude": -5.733333
},
{
    "direction": "",
    "codes": {
        "yandex_code": "s9625545"
    },
    "station_type": "airport",
    "title": "Комаио",
    "longitude": 143.6,
    "transport_type": "plane",
    "latitude": -7.266667
},
{
    "direction": "",
    "codes": {
        "yandex_code": "s9625548"
    },
    "station_type": "airport",
    "title": "Компиам",
    "longitude": 143.933333,
    "transport_type": "plane",
    "latitude": -5.383333
},
{
    "direction": "",
    "codes": {
        "yandex_code": "s9625554"
    },
    "station_type": "airport",
    "title": "Кондже",
    "longitude": 147.65,
    "transport_type": "plane",
    "latitude": -6.133333
},
{
    "direction": "",
    "codes": {
        "yandex_code": "s9625561"
    },
    "station_type": "airport",
    "title": "Короба",
    "longitude": 142.733333,
    "transport_type": "plane",
    "latitude": -5.683333
},
{
    "direction": "",
    "codes": {
        "yandex_code": "s9625564"
    },
    "station_type": "airport",
    "title": "Косипе",
    "longitude": 147.466667,
    "transport_type": "plane",
    "latitude": -8.558333
},
{
    "direction": "",
    "codes": {
        "yandex_code": "s9625605"
    },
    "station_type": "airport",
    "title": "Капиано",
    "longitude": 148.216667,
    "transport_type": "plane",
    "latitude": -10.066667
},
{
    "direction": "",
    "codes": {
        "yandex_code": "s9625608"
    },
    "station_type": "airport",
    "title": "Кури",
    "longitude": 143.266667,
    "transport_type": "plane",
    "latitude": -7.133333
},
{
    "direction": "",
    "codes": {
        "yandex_code": "s9625612"
    },
    "station_type": "airport",
    "title": "Курвина",
    "longitude": 155.333333,
    "transport_type": "plane",
    "latitude": -6.183333
},
{
    "direction": "",
    "codes": {
        "yandex_code": "s9625616"
    },
    "station_type": "airport",
    "title": "Куиол",
    "longitude": 141.630556,
    "transport_type": "plane",
    "latitude": -5.378333
},
{
    "direction": "",
    "codes": {
        "yandex_code": "s9625646"
    },
    "station_type": "airport",
    "title": "Лаблаб",
    "longitude": 148.066667,
    "transport_type": "plane",
    "latitude": -5.633333
},
{
    "direction": "",
    "codes": {
        "yandex_code": "s9625664"
    },
    "station_type": "airport",
    "title": "Лайагам",
    "longitude": 143.483333,
    "transport_type": "plane",
    "latitude": -5.533333
},
{
    "direction": "",
    "codes": {
        "yandex_code": "s9625677"
    },
    "station_type": "airport",
    "title": "Ламасса",
    "longitude": 152.75,
    "transport_type": "plane",
    "latitude": -4.7
},
{
    "direction": "",
    "codes": {
        "yandex_code": "s9625720"
    },
    "station_type": "airport",
    "title": "Ленгбати",
    "longitude": 147.366667,
    "transport_type": "plane",
    "latitude": -6.366667
},
{
    "direction": "",
    "codes": {
        "yandex_code": "s9625723"
    },
    "station_type": "airport",
    "title": "Лерон-Плейнз",
    "longitude": 146.35,
    "transport_type": "plane",
    "latitude": -6.4
},
{
    "direction": "",
    "codes": {
        "yandex_code": "s9625754"
    },
    "station_type": "airport",
    "title": "Линга-Линга",
    "longitude": 149.416667,
    "transport_type": "plane",
    "latitude": -5.683333
},
{
    "direction": "",
    "codes": {
        "yandex_code": "s9625770"
    },
    "station_type": "airport",
    "title": "Лоани",
    "longitude": 150.15,
    "transport_type": "plane",
    "latitude": -10.433333
},
{
    "direction": "",
    "codes": {
        "yandex_code": "s9625791"
    },
    "station_type": "airport",
    "title": "Лонг-Айленд",
    "longitude": 147.016667,
    "transport_type": "plane",
    "latitude": -5.366667
},
{
    "direction": "",
    "codes": {
        "yandex_code": "s9625907"
    },
    "station_type": "airport",
    "title": "Малалоа",
    "longitude": 146.166667,
    "transport_type": "plane",
    "latitude": -8.1
},
{
    "direction": "",
    "codes": {
        "yandex_code": "s9625915"
    },
    "station_type": "airport",
    "title": "Мамай",
    "longitude": 149.533333,
    "transport_type": "plane",
    "latitude": -10.3
},
{
    "direction": "",
    "codes": {
        "yandex_code": "s9625929"
    },
    "station_type": "airport",
    "title": "Мангана",
    "longitude": 151.783333,
    "transport_type": "plane",
    "latitude": -5.566667
},
{
    "direction": "",
    "codes": {
        "yandex_code": "s9625946"
    },
    "station_type": "airport",
    "title": "Мапода",
    "longitude": 143.166667,
    "transport_type": "plane",
    "latitude": -7.966667
},
{
    "direction": "",
    "codes": {
        "yandex_code": "s9625968"
    },
    "station_type": "airport",
    "title": "Остров Стефен",
    "longitude": 143.566667,
    "transport_type": "plane",
    "latitude": -9.5
},
{
    "direction": "",
    "codes": {
        "yandex_code": "s9625993"
    },
    "station_type": "airport",
    "title": "Суаби",
    "longitude": 142.3,
    "transport_type": "plane",
    "latitude": -6.083333
},
{
    "direction": "",
    "codes": {
        "yandex_code": "s9626006"
    },
    "station_type": "airport",
    "title": "Суле",
    "longitude": 151.316667,
    "transport_type": "plane",
    "latitude": -4.966667
},
{
    "direction": "",
    "codes": {
        "yandex_code": "s9626027"
    },
    "station_type": "airport",
    "title": "Сурия",
    "longitude": 143.916667,
    "transport_type": "plane",
    "latitude": -7.166667
},
{
    "direction": "",
    "codes": {
        "yandex_code": "s9626088"
    },
    "station_type": "airport",
    "title": "Тапини",
    "longitude": 146.983333,
    "transport_type": "plane",
    "latitude": -8.366667
},
{
    "direction": "",
    "codes": {
        "yandex_code": "s9626090"
    },
    "station_type": "airport",
    "title": "Тарабо",
    "longitude": 145.533333,
    "transport_type": "plane",
    "latitude": -6.466667
},
{
    "direction": "",
    "codes": {
        "yandex_code": "s9626103"
    },
    "station_type": "airport",
    "title": "Тава",
    "longitude": 146.116667,
    "transport_type": "plane",
    "latitude": -7.45
},
{
    "direction": "",
    "codes": {
        "yandex_code": "s9626131"
    },
    "station_type": "airport",
    "title": "Терапо",
    "longitude": 146.066667,
    "transport_type": "plane",
    "latitude": -8.083333
},
{
    "direction": "",
    "codes": {
        "yandex_code": "s9626181"
    },
    "station_type": "airport",
    "title": "Тимбунку",
    "longitude": 143.516667,
    "transport_type": "plane",
    "latitude": -4.2
},
{
    "direction": "",
    "codes": {
        "yandex_code": "s9626183"
    },
    "station_type": "airport",
    "title": "Тинболи",
    "longitude": 143.383333,
    "transport_type": "plane",
    "latitude": -4.083333
},
{
    "direction": "",
    "codes": {
        "yandex_code": "s9626209"
    },
    "station_type": "airport",
    "title": "Тол",
    "longitude": 152.033333,
    "transport_type": "plane",
    "latitude": -4.983333
},
{
    "direction": "",
    "codes": {
        "yandex_code": "s9626220"
    },
    "station_type": "airport",
    "title": "Тону",
    "longitude": 155.433333,
    "transport_type": "plane",
    "latitude": -6.65
},
{
    "direction": "",
    "codes": {
        "yandex_code": "s9626223"
    },
    "station_type": "airport",
    "title": "Торемби",
    "longitude": 143.133333,
    "transport_type": "plane",
    "latitude": -4.016667
},
{
    "direction": "",
    "codes": {
        "yandex_code": "s9626263"
    },
    "station_type": "airport",
    "title": "Тсеви",
    "longitude": 146.033333,
    "transport_type": "plane",
    "latitude": -6.966667
},
{
    "direction": "",
    "codes": {
        "yandex_code": "s9626311"
    },
    "station_type": "airport",
    "title": "Упиара",
    "longitude": 142.633333,
    "transport_type": "plane",
    "latitude": -8.533333
},
{
    "direction": "",
    "codes": {
        "yandex_code": "s9626408"
    },
    "station_type": "airport",
    "title": "Вабаг",
    "longitude": 143.666667,
    "transport_type": "plane",
    "latitude": -5.483333
},
{
    "direction": "",
    "codes": {
        "yandex_code": "s9626409"
    },
    "station_type": "airport",
    "title": "Вабо",
    "longitude": 145.0,
    "transport_type": "plane",
    "latitude": -7.666667
},
{
    "direction": "",
    "codes": {
        "yandex_code": "s9626416"
    },
    "station_type": "airport",
    "title": "Вагау",
    "longitude": 146.8,
    "transport_type": "plane",
    "latitude": -6.8
},
{
    "direction": "",
    "codes": {
        "yandex_code": "s9626428"
    },
    "station_type": "airport",
    "title": "Вакунай",
    "longitude": 155.233333,
    "transport_type": "plane",
    "latitude": -5.866667
},
{
    "direction": "",
    "codes": {
        "yandex_code": "s9626439"
    },
    "station_type": "airport",
    "title": "Ваниджела",
    "longitude": 149.15,
    "transport_type": "plane",
    "latitude": -9.333333
},
{
    "direction": "",
    "codes": {
        "yandex_code": "s9626440"
    },
    "station_type": "airport",
    "title": "Ванума",
    "longitude": 145.316667,
    "transport_type": "plane",
    "latitude": -4.9
},
{
    "direction": "",
    "codes": {
        "yandex_code": "s9626443"
    },
    "station_type": "airport",
    "title": "Ваполу",
    "longitude": 150.35,
    "transport_type": "plane",
    "latitude": -9.316667
},
{
    "direction": "",
    "codes": {
        "yandex_code": "s9626456"
    },
    "station_type": "airport",
    "title": "Васу",
    "longitude": 147.183333,
    "transport_type": "plane",
    "latitude": -5.983333
},
{
    "direction": "",
    "codes": {
        "yandex_code": "s9626457"
    },
    "station_type": "airport",
    "title": "Васум",
    "longitude": 149.333333,
    "transport_type": "plane",
    "latitude": -6.05
},
{
    "direction": "",
    "codes": {
        "yandex_code": "s9626474"
    },
    "station_type": "airport",
    "title": "Ведау",
    "longitude": 150.083333,
    "transport_type": "plane",
    "latitude": -10.1
},
{
    "direction": "",
    "codes": {
        "yandex_code": "s9626518"
    },
    "station_type": "airport",
    "title": "Войтапе",
    "longitude": 147.25,
    "transport_type": "plane",
    "latitude": -8.55
},
{
    "direction": "",
    "codes": {
        "yandex_code": "s9626549"
    },
    "station_type": "airport",
    "title": "Ялумет",
    "longitude": 146.6,
    "transport_type": "plane",
    "latitude": -6.133333
},
{
    "direction": "",
    "codes": {
        "yandex_code": "s9626561"
    },
    "station_type": "airport",
    "title": "Япсеи",
    "longitude": 141.1,
    "transport_type": "plane",
    "latitude": -4.633333
},
{
    "direction": "",
    "codes": {
        "yandex_code": "s9626571"
    },
    "station_type": "airport",
    "title": "Енкис",
    "longitude": 143.916667,
    "transport_type": "plane",
    "latitude": -5.1
},
{
    "direction": "",
    "codes": {
        "yandex_code": "s9626574"
    },
    "station_type": "airport",
    "title": "Ева",
    "longitude": 146.166667,
    "transport_type": "plane",
    "latitude": -7.55
},
{
    "direction": "",
    "codes": {
        "yandex_code": "s9626581"
    },
    "station_type": "airport",
    "title": "Йонгай",
    "longitude": 147.5,
    "transport_type": "plane",
    "latitude": -8.583333
},
{
    "direction": "",
    "codes": {
        "yandex_code": "s9626591"
    },
    "station_type": "airport",
    "title": "Кайруку",
    "longitude": 146.516667,
    "transport_type": "plane",
    "latitude": -8.816667
},
{
    "direction": "",
    "codes": {
        "yandex_code": "s9626647"
    },
    "station_type": "airport",
    "title": "Араджип",
    "longitude": 149.466667,
    "transport_type": "plane",
    "latitude": -9.9
},
{
    "direction": "",
    "codes": {
        "yandex_code": "s9626657"
    },
    "station_type": "airport",
    "title": "Арава",
    "longitude": 155.566667,
    "transport_type": "plane",
    "latitude": -6.233333
},
{
    "direction": "",
    "codes": {
        "yandex_code": "s9626673"
    },
    "station_type": "airport",
    "title": "Ароа",
    "longitude": 146.75,
    "transport_type": "plane",
    "latitude": -9.033333
},
{
    "direction": "",
    "codes": {
        "yandex_code": "s9626674"
    },
    "station_type": "airport",
    "title": "Арона",
    "longitude": 145.966667,
    "transport_type": "plane",
    "latitude": -6.25
},
{
    "direction": "",
    "codes": {
        "yandex_code": "s9626686"
    },
    "station_type": "airport",
    "title": "Асапа",
    "longitude": 148.133333,
    "transport_type": "plane",
    "latitude": -8.983333
},
{
    "direction": "",
    "codes": {
        "yandex_code": "s9626707"
    },
    "station_type": "airport",
    "title": "Аткамба",
    "longitude": 141.1,
    "transport_type": "plane",
    "latitude": -6.066667
},
{
    "direction": "",
    "codes": {
        "yandex_code": "s9626717"
    },
    "station_type": "airport",
    "title": "Аумо",
    "longitude": 148.433333,
    "transport_type": "plane",
    "latitude": -5.716667
},
{
    "direction": "",
    "codes": {
        "yandex_code": "s9626724"
    },
    "station_type": "airport",
    "title": "Аваба",
    "longitude": 142.75,
    "transport_type": "plane",
    "latitude": -8.016667
},
{
    "direction": "",
    "codes": {
        "yandex_code": "s9626743"
    },
    "station_type": "airport",
    "title": "Байбара",
    "longitude": 149.633333,
    "transport_type": "plane",
    "latitude": -10.333333
},
{
    "direction": "",
    "codes": {
        "yandex_code": "s9626806"
    },
    "station_type": "airport",
    "title": "Манбил",
    "longitude": 141.216667,
    "transport_type": "plane",
    "latitude": -4.866667
},
{
    "direction": "",
    "codes": {
        "yandex_code": "s9626813"
    },
    "station_type": "airport",
    "title": "Остров Мюррей",
    "longitude": 144.016667,
    "transport_type": "plane",
    "latitude": -9.933333
},
{
    "direction": "",
    "codes": {
        "yandex_code": "s9626865"
    },
    "station_type": "airport",
    "title": "Нанкина",
    "longitude": 146.45,
    "transport_type": "plane",
    "latitude": -5.833333
},
{
    "direction": "",
    "codes": {
        "yandex_code": "s9626900"
    },
    "station_type": "airport",
    "title": "Негарбо",
    "longitude": 144.666667,
    "transport_type": "plane",
    "latitude": -6.583333
},
{
    "direction": "",
    "codes": {
        "yandex_code": "s9626933"
    },
    "station_type": "airport",
    "title": "Нинджерум",
    "longitude": 141.116667,
    "transport_type": "plane",
    "latitude": -5.666667
},
{
    "direction": "",
    "codes": {
        "yandex_code": "s9626943"
    },
    "station_type": "airport",
    "title": "Номад-Ривер",
    "longitude": 142.116667,
    "transport_type": "plane",
    "latitude": -6.65
},
{
    "direction": "",
    "codes": {
        "yandex_code": "s9626968"
    },
    "station_type": "airport",
    "title": "Новата",
    "longitude": 143.166667,
    "transport_type": "plane",
    "latitude": -8.5
},
{
    "direction": "",
    "codes": {
        "yandex_code": "s9626972"
    },
    "station_type": "airport",
    "title": "Нугурия",
    "longitude": 154.75,
    "transport_type": "plane",
    "latitude": -3.333333
},
{
    "direction": "",
    "codes": {
        "yandex_code": "s9627001"
    },
    "station_type": "airport",
    "title": "Обо",
    "longitude": 141.333333,
    "transport_type": "plane",
    "latitude": -7.583333
},
{
    "direction": "",
    "codes": {
        "yandex_code": "s9627015"
    },
    "station_type": "airport",
    "title": "Огерананг",
    "longitude": 147.333333,
    "transport_type": "plane",
    "latitude": -6.433333
},
{
    "direction": "",
    "codes": {
        "yandex_code": "s9627028"
    },
    "station_type": "airport",
    "title": "Оксапмин",
    "longitude": 142.233333,
    "transport_type": "plane",
    "latitude": -5.233333
},
{
    "direction": "",
    "codes": {
        "yandex_code": "s9627039"
    },
    "station_type": "airport",
    "title": "Олсобип",
    "longitude": 141.5,
    "transport_type": "plane",
    "latitude": -5.383333
},
{
    "direction": "",
    "codes": {
        "yandex_code": "s9627045"
    },
    "station_type": "airport",
    "title": "Омора",
    "longitude": 147.083333,
    "transport_type": "plane",
    "latitude": -7.833333
},
{
    "direction": "",
    "codes": {
        "yandex_code": "s9627050"
    },
    "station_type": "airport",
    "title": "Онондж",
    "longitude": 147.2,
    "transport_type": "plane",
    "latitude": -8.583333
},
{
    "direction": "",
    "codes": {
        "yandex_code": "s9627056"
    },
    "station_type": "airport",
    "title": "Опен-Бэй",
    "longitude": 151.7,
    "transport_type": "plane",
    "latitude": -4.8
},
{
    "direction": "",
    "codes": {
        "yandex_code": "s9627058"
    },
    "station_type": "airport",
    "title": "Орам",
    "longitude": 148.033333,
    "transport_type": "plane",
    "latitude": -9.672222
},
{
    "direction": "",
    "codes": {
        "yandex_code": "s9627066"
    },
    "station_type": "airport",
    "title": "Ория",
    "longitude": 155.683333,
    "transport_type": "plane",
    "latitude": -6.583333
},
{
    "direction": "",
    "codes": {
        "yandex_code": "s9627121"
    },
    "station_type": "airport",
    "title": "Пайела",
    "longitude": 142.983333,
    "transport_type": "plane",
    "latitude": -5.383333
},
{
    "direction": "",
    "codes": {
        "yandex_code": "s9627143"
    },
    "station_type": "airport",
    "title": "Пангоа",
    "longitude": 141.55,
    "transport_type": "plane",
    "latitude": -7.016667
},
{
    "direction": "",
    "codes": {
        "yandex_code": "s9627235"
    },
    "station_type": "airport",
    "title": "Пимага",
    "longitude": 143.55,
    "transport_type": "plane",
    "latitude": -6.366667
},
{
    "direction": "",
    "codes": {
        "yandex_code": "s9627236"
    },
    "station_type": "airport",
    "title": "Пиндиу",
    "longitude": 147.583333,
    "transport_type": "plane",
    "latitude": -6.5
},
{
    "direction": "",
    "codes": {
        "yandex_code": "s9627362"
    },
    "station_type": "airport",
    "title": "Пуас",
    "longitude": 150.233333,
    "transport_type": "plane",
    "latitude": -2.4
},
{
    "direction": "",
    "codes": {
        "yandex_code": "s9627382"
    },
    "station_type": "airport",
    "title": "Пумани",
    "longitude": 149.466667,
    "transport_type": "plane",
    "latitude": -9.816667
},
{
    "direction": "",
    "codes": {
        "yandex_code": "s9627411"
    },
    "station_type": "airport",
    "title": "Рабараба",
    "longitude": 149.833333,
    "transport_type": "plane",
    "latitude": -9.983333
},
{
    "direction": "",
    "codes": {
        "yandex_code": "s9627426"
    },
    "station_type": "airport",
    "title": "Раканда",
    "longitude": 152.466667,
    "transport_type": "plane",
    "latitude": -4.166667
},
{
    "direction": "",
    "codes": {
        "yandex_code": "s9627512"
    },
    "station_type": "airport",
    "title": "Робинсон-Ривер",
    "longitude": 148.816667,
    "transport_type": "plane",
    "latitude": -10.15
},
{
    "direction": "",
    "codes": {
        "yandex_code": "s9627561"
    },
    "station_type": "airport",
    "title": "Румгинае",
    "longitude": 141.3,
    "transport_type": "plane",
    "latitude": -5.916667
},
{
    "direction": "",
    "codes": {
        "yandex_code": "s9627566"
    },
    "station_type": "airport",
    "title": "Рути",
    "longitude": 144.25,
    "transport_type": "plane",
    "latitude": -5.3
},
{
    "direction": "",
    "codes": {
        "yandex_code": "s9627577"
    },
    "station_type": "airport",
    "title": "Сафиа",
    "longitude": 148.633333,
    "transport_type": "plane",
    "latitude": -9.583333
},
{
    "direction": "",
    "codes": {
        "yandex_code": "s9627580"
    },
    "station_type": "airport",
    "title": "Остров Сайбай",
    "longitude": 142.666667,
    "transport_type": "plane",
    "latitude": -9.4
},
{
    "direction": "",
    "codes": {
        "yandex_code": "s9627587"
    },
    "station_type": "airport",
    "title": "Саламо",
    "longitude": 150.783333,
    "transport_type": "plane",
    "latitude": -9.666667
},
{
    "direction": "",
    "codes": {
        "yandex_code": "s9627596"
    },
    "station_type": "airport",
    "title": "Чина Страйтс Айрстрип",
    "longitude": 150.683333,
    "transport_type": "plane",
    "latitude": -10.55
},
{
    "direction": "",
    "codes": {
        "yandex_code": "s9627711"
    },
    "station_type": "airport",
    "title": "Сасерем",
    "longitude": 151.391601595597,
    "transport_type": "plane",
    "latitude": -5.08651628817115
},
{
    "direction": "",
    "codes": {
        "yandex_code": "s9627746"
    },
    "station_type": "airport",
    "title": "Сехулеа",
    "longitude": 150.35,
    "transport_type": "plane",
    "latitude": -10.216667
},
{
    "direction": "",
    "codes": {
        "yandex_code": "s9627750"
    },
    "station_type": "airport",
    "title": "Селбанг",
    "longitude": 141.75,
    "transport_type": "plane",
    "latitude": -5.316667
},
{
    "direction": "",
    "codes": {
        "yandex_code": "s9627762"
    },
    "station_type": "airport",
    "title": "Сепик-Плэйнз",
    "longitude": 143.683333,
    "transport_type": "plane",
    "latitude": -3.9
},
{
    "direction": "",
    "codes": {
        "yandex_code": "s9627801"
    },
    "station_type": "airport",
    "title": "Сиалум",
    "longitude": 147.6,
    "transport_type": "plane",
    "latitude": -6.1
},
{
    "direction": "",
    "codes": {
        "yandex_code": "s9627802"
    },
    "station_type": "airport",
    "title": "Сиасси",
    "longitude": 147.95,
    "transport_type": "plane",
    "latitude": -5.9
},
{
    "direction": "",
    "codes": {
        "yandex_code": "s9627813"
    },
    "station_type": "airport",
    "title": "Сила",
    "longitude": 148.4,
    "transport_type": "plane",
    "latitude": -9.116667
},
{
    "direction": "",
    "codes": {
        "yandex_code": "s9627822"
    },
    "station_type": "airport",
    "title": "Сингоа",
    "longitude": 147.133333,
    "transport_type": "plane",
    "latitude": -6.7
},
{
    "direction": "",
    "codes": {
        "yandex_code": "s9627829"
    },
    "station_type": "airport",
    "title": "Сиссано",
    "longitude": 142.05,
    "transport_type": "plane",
    "latitude": -3.0
},
{
    "direction": "",
    "codes": {
        "yandex_code": "s9627864"
    },
    "station_type": "airport",
    "title": "Сопу",
    "longitude": 147.766667,
    "transport_type": "plane",
    "latitude": -9.0
},
{
    "direction": "",
    "codes": {
        "yandex_code": "s9627937"
    },
    "station_type": "airport",
    "title": "Амбойн",
    "longitude": 143.5,
    "transport_type": "plane",
    "latitude": -4.6
},
{
    "direction": "",
    "codes": {
        "yandex_code": "s9627939"
    },
    "station_type": "airport",
    "title": "Амбунти",
    "longitude": 142.833333,
    "transport_type": "plane",
    "latitude": -4.233333
},
{
    "direction": "",
    "codes": {
        "yandex_code": "s9627972"
    },
    "station_type": "airport",
    "title": "Ангуганак",
    "longitude": 142.25,
    "transport_type": "plane",
    "latitude": -3.583333
},
{
    "direction": "",
    "codes": {
        "yandex_code": "s9627981"
    },
    "station_type": "airport",
    "title": "Аннаберг",
    "longitude": 144.666667,
    "transport_type": "plane",
    "latitude": -4.916667
},
{
    "direction": "",
    "codes": {
        "yandex_code": "s9628031"
    },
    "station_type": "airport",
    "title": "Аиамбак",
    "longitude": 141.266667,
    "transport_type": "plane",
    "latitude": -7.348611
},
{
    "direction": "",
    "codes": {
        "yandex_code": "s9628034"
    },
    "station_type": "airport",
    "title": "Айоме",
    "longitude": 144.733333,
    "transport_type": "plane",
    "latitude": -5.133333
},
{
    "direction": "",
    "codes": {
        "yandex_code": "s9628175"
    },
    "station_type": "airport",
    "title": "Биалла",
    "longitude": 151.033333,
    "transport_type": "plane",
    "latitude": -5.316667
},
{
    "direction": "",
    "codes": {
        "yandex_code": "s9628176"
    },
    "station_type": "airport",
    "title": "Бьянгабип",
    "longitude": 141.75,
    "transport_type": "plane",
    "latitude": -5.529722
},
{
    "direction": "",
    "codes": {
        "yandex_code": "s9628195"
    },
    "station_type": "airport",
    "title": "Бимин",
    "longitude": 142.016667,
    "transport_type": "plane",
    "latitude": -5.283333
},
{
    "direction": "",
    "codes": {
        "yandex_code": "s9628197"
    },
    "station_type": "airport",
    "title": "Бинигуни",
    "longitude": 149.316667,
    "transport_type": "plane",
    "latitude": -9.633333
},
{
    "direction": "",
    "codes": {
        "yandex_code": "s9628246"
    },
    "station_type": "airport",
    "title": "Боку",
    "longitude": 155.216667,
    "transport_type": "plane",
    "latitude": -6.266667
},
{
    "direction": "",
    "codes": {
        "yandex_code": "s9628253"
    },
    "station_type": "airport",
    "title": "Бомай",
    "longitude": 144.633333,
    "transport_type": "plane",
    "latitude": -6.366667
},
{
    "direction": "",
    "codes": {
        "yandex_code": "s9628404"
    },
    "station_type": "airport",
    "title": "Кейп-Глусестер",
    "longitude": 148.4325,
    "transport_type": "plane",
    "latitude": -5.459167
},
{
    "direction": "",
    "codes": {
        "yandex_code": "s9628406"
    },
    "station_type": "airport",
    "title": "Кейп-Орфорд",
    "longitude": 152.083333,
    "transport_type": "plane",
    "latitude": -5.433333
},
{
    "direction": "",
    "codes": {
        "yandex_code": "s9628411"
    },
    "station_type": "airport",
    "title": "Кейп-Вогель",
    "longitude": 150.05,
    "transport_type": "plane",
    "latitude": -9.7
},
{
    "direction": "",
    "codes": {
        "yandex_code": "s9628526"
    },
    "station_type": "airport",
    "title": "Чунгрибу",
    "longitude": 144.7,
    "transport_type": "plane",
    "latitude": -4.8
},
{
    "direction": "",
    "codes": {
        "yandex_code": "s9628618"
    },
    "station_type": "airport",
    "title": "Фрейда-Ривер",
    "longitude": 141.958333,
    "transport_type": "plane",
    "latitude": -4.616667
},
{
    "direction": "",
    "codes": {
        "yandex_code": "s9628625"
    },
    "station_type": "airport",
    "title": "Фуллборн",
    "longitude": 150.65,
    "transport_type": "plane",
    "latitude": -6.15
},
{
    "direction": "",
    "codes": {
        "yandex_code": "s9628646"
    },
    "station_type": "airport",
    "title": "Гуари",
    "longitude": 146.883333,
    "transport_type": "plane",
    "latitude": -8.1
},
{
    "direction": "",
    "codes": {
        "yandex_code": "s9628647"
    },
    "station_type": "airport",
    "title": "Гуасопа",
    "longitude": 152.95,
    "transport_type": "plane",
    "latitude": -9.233333
},
{
    "direction": "",
    "codes": {
        "yandex_code": "s9628664"
    },
    "station_type": "airport",
    "title": "Хаби",
    "longitude": 142.497778,
    "transport_type": "plane",
    "latitude": -6.333333
},
{
    "direction": "",
    "codes": {
        "yandex_code": "s9628695"
    },
    "station_type": "airport",
    "title": "Индаген",
    "longitude": 147.033333,
    "transport_type": "plane",
    "latitude": -6.033333
},
{
    "direction": "",
    "codes": {
        "yandex_code": "s9628708"
    },
    "station_type": "airport",
    "title": "Иома",
    "longitude": 147.85,
    "transport_type": "plane",
    "latitude": -8.366667
},
{
    "direction": "",
    "codes": {
        "yandex_code": "s9628758"
    },
    "station_type": "airport",
    "title": "Кеглсугл",
    "longitude": 145.083333,
    "transport_type": "plane",
    "latitude": -5.808333
},
{
    "direction": "",
    "codes": {
        "yandex_code": "s9628770"
    },
    "station_type": "airport",
    "title": "Керау",
    "longitude": 147.083333,
    "transport_type": "plane",
    "latitude": -8.3
},
{
    "direction": "",
    "codes": {
        "yandex_code": "s9628791"
    },
    "station_type": "airport",
    "title": "Кикинонда",
    "longitude": 147.916667,
    "transport_type": "plane",
    "latitude": -8.65
},
{
    "direction": "",
    "codes": {
        "yandex_code": "s9628815"
    },
    "station_type": "airport",
    "title": "Лэйк-Марри",
    "longitude": 141.416667,
    "transport_type": "plane",
    "latitude": -6.85
},
{
    "direction": "",
    "codes": {
        "yandex_code": "s9628860"
    },
    "station_type": "airport",
    "title": "Леху",
    "longitude": 155.7,
    "transport_type": "plane",
    "latitude": -6.416667
},
{
    "direction": "",
    "codes": {
        "yandex_code": "s9628862"
    },
    "station_type": "airport",
    "title": "Лейтре",
    "longitude": 141.616667,
    "transport_type": "plane",
    "latitude": -2.833333
},
{
    "direction": "",
    "codes": {
        "yandex_code": "s9628870"
    },
    "station_type": "airport",
    "title": "Лезе",
    "longitude": 146.116667,
    "transport_type": "plane",
    "latitude": -8.166667
},
{
    "direction": "",
    "codes": {
        "yandex_code": "s9628893"
    },
    "station_type": "airport",
    "title": "Макини",
    "longitude": 147.716667,
    "transport_type": "plane",
    "latitude": -6.533333
},
{
    "direction": "",
    "codes": {
        "yandex_code": "s9628895"
    },
    "station_type": "airport",
    "title": "Мал",
    "longitude": 144.2,
    "transport_type": "plane",
    "latitude": -1.333333
},
{
    "direction": "",
    "codes": {
        "yandex_code": "s9628899"
    },
    "station_type": "airport",
    "title": "Малам",
    "longitude": 142.651111,
    "transport_type": "plane",
    "latitude": -8.703889
},
{
    "direction": "",
    "codes": {
        "yandex_code": "s9628902"
    },
    "station_type": "airport",
    "title": "Малеколон",
    "longitude": 153.675,
    "transport_type": "plane",
    "latitude": -4.016667
},